__time,/amcl_pose/header/seq,/amcl_pose/header/stamp,/amcl_pose/pose/covariance[0],/amcl_pose/pose/covariance[10],/amcl_pose/pose/covariance[11],/amcl_pose/pose/covariance[12],/amcl_pose/pose/covariance[13],/amcl_pose/pose/covariance[14],/amcl_pose/pose/covariance[15],/amcl_pose/pose/covariance[16],/amcl_pose/pose/covariance[17],/amcl_pose/pose/covariance[18],/amcl_pose/pose/covariance[19],/amcl_pose/pose/covariance[1],/amcl_pose/pose/covariance[20],/amcl_pose/pose/covariance[21],/amcl_pose/pose/covariance[22],/amcl_pose/pose/covariance[23],/amcl_pose/pose/covariance[24],/amcl_pose/pose/covariance[25],/amcl_pose/pose/covariance[26],/amcl_pose/pose/covariance[27],/amcl_pose/pose/covariance[28],/amcl_pose/pose/covariance[29],/amcl_pose/pose/covariance[2],/amcl_pose/pose/covariance[30],/amcl_pose/pose/covariance[31],/amcl_pose/pose/covariance[32],/amcl_pose/pose/covariance[33],/amcl_pose/pose/covariance[34],/amcl_pose/pose/covariance[35],/amcl_pose/pose/covariance[3],/amcl_pose/pose/covariance[4],/amcl_pose/pose/covariance[5],/amcl_pose/pose/covariance[6],/amcl_pose/pose/covariance[7],/amcl_pose/pose/covariance[8],/amcl_pose/pose/covariance[9],/amcl_pose/pose/pose/orientation/w,/amcl_pose/pose/pose/orientation/x,/amcl_pose/pose/pose/orientation/y,/amcl_pose/pose/pose/orientation/z,/amcl_pose/pose/pose/position/x,/amcl_pose/pose/pose/position/y,/amcl_pose/pose/pose/position/z,Lower Bound X,Lower Bound Y,Upper Bound X,Upper Bound Y
1539699415.940221,1.000000000,1539699415.881080151,0.169024397,0.000000000,0.000000000,0.000000000,0.000000000,0.000000000,0.000000000,0.000000000,0.000000000,0.000000000,0.000000000,-0.004699063,0.000000000,0.000000000,0.000000000,0.000000000,0.000000000,0.000000000,0.000000000,0.000000000,0.000000000,0.000000000,0.000000000,0.000000000,0.000000000,0.000000000,0.000000000,0.000000000,0.096040723,0.000000000,0.000000000,0.000000000,-0.004699063,0.135951045,0.000000000,0.000000000,0.992429997,0.000000000,0.000000000,0.122811646,0.262921477,0.020861726,0.000000000,-0.559330058,-0.716569071,1.085173013,0.758292522
1539699417.112218,2.000000000,1539699417.084652901,0.112219951,0.000000000,0.000000000,0.000000000,0.000000000,0.000000000,0.000000000,0.000000000,0.000000000,0.000000000,0.000000000,-0.005468992,0.000000000,0.000000000,0.000000000,0.000000000,0.000000000,0.000000000,0.000000000,0.000000000,0.000000000,0.000000000,0.000000000,0.000000000,0.000000000,0.000000000,0.000000000,0.000000000,0.097603423,0.000000000,0.000000000,0.000000000,-0.005468992,0.086050597,0.000000000,0.000000000,0.943027276,0.000000000,0.000000000,0.332715429,0.443601004,0.067235389,0.000000000,-0.226383923,-0.519452253,1.113585931,0.653923032
1539699418.304192,3.000000000,1539699418.288478851,0.061686804,0.000000000,0.000000000,0.000000000,0.000000000,0.000000000,0.000000000,0.000000000,0.000000000,0.000000000,0.000000000,-0.005324453,0.000000000,0.000000000,0.000000000,0.000000000,0.000000000,0.000000000,0.000000000,0.000000000,0.000000000,0.000000000,0.000000000,0.000000000,0.000000000,0.000000000,0.000000000,0.000000000,0.081432081,0.000000000,0.000000000,0.000000000,-0.005324453,0.052746035,0.000000000,0.000000000,0.849767163,0.000000000,0.000000000,0.527158201,0.543381737,0.213106639,0.000000000,0.046645172,-0.246223460,1.040118303,0.672436738
1539699419.922888,4.000000000,1539699419.893621206,0.037503966,0.000000000,0.000000000,0.000000000,0.000000000,0.000000000,0.000000000,0.000000000,0.000000000,0.000000000,0.000000000,-0.007336861,0.000000000,0.000000000,0.000000000,0.000000000,0.000000000,0.000000000,0.000000000,0.000000000,0.000000000,0.000000000,0.000000000,0.000000000,0.000000000,0.000000000,0.000000000,0.000000000,0.073825754,0.000000000,0.000000000,0.000000000,-0.007336861,0.041076442,0.000000000,0.000000000,0.698082196,0.000000000,0.000000000,0.716017631,0.581614162,0.477369086,0.000000000,0.194295347,0.072022608,0.968932978,0.882715563
1539699421.530402,5.000000000,1539699421.498627186,0.030646242,0.000000000,0.000000000,0.000000000,0.000000000,0.000000000,0.000000000,0.000000000,0.000000000,0.000000000,0.000000000,-0.004654608,0.000000000,0.000000000,0.000000000,0.000000000,0.000000000,0.000000000,0.000000000,0.000000000,0.000000000,0.000000000,0.000000000,0.000000000,0.000000000,0.000000000,0.000000000,0.000000000,0.072962192,0.000000000,0.000000000,0.000000000,-0.004654608,0.030843708,0.000000000,0.000000000,0.522372951,0.000000000,0.000000000,0.852717128,0.531753054,0.733462237,0.000000000,0.181631693,0.382214700,0.881874415,1.084709773
1539699422.732522,6.000000000,1539699422.702642202,0.030921781,0.000000000,0.000000000,0.000000000,0.000000000,0.000000000,0.000000000,0.000000000,0.000000000,0.000000000,0.000000000,-0.006487825,0.000000000,0.000000000,0.000000000,0.000000000,0.000000000,0.000000000,0.000000000,0.000000000,0.000000000,0.000000000,0.000000000,0.000000000,0.000000000,0.000000000,0.000000000,0.000000000,0.058425180,0.000000000,0.000000000,0.000000000,-0.006487825,0.020111119,0.000000000,0.000000000,0.309534227,0.000000000,0.000000000,0.950888302,0.411263378,0.868786161,0.000000000,0.059571575,0.585158807,0.762955182,1.152413515
1539699424.167699,7.000000000,1539699424.107737064,0.034487237,0.000000000,0.000000000,0.000000000,0.000000000,0.000000000,0.000000000,0.000000000,0.000000000,0.000000000,0.000000000,-0.004961445,0.000000000,0.000000000,0.000000000,0.000000000,0.000000000,0.000000000,0.000000000,0.000000000,0.000000000,0.000000000,0.000000000,0.000000000,0.000000000,0.000000000,0.000000000,0.000000000,0.052821726,0.000000000,0.000000000,0.000000000,-0.004961445,0.015172495,0.000000000,0.000000000,0.100692874,0.000000000,0.000000000,0.994917557,0.197216383,0.962211503,0.000000000,-0.174198412,0.715858141,0.568631178,1.208564865
1539699425.948218,8.000000000,1539699425.913881779,0.038219652,0.000000000,0.000000000,0.000000000,0.000000000,0.000000000,0.000000000,0.000000000,0.000000000,0.000000000,0.000000000,0.000164064,0.000000000,0.000000000,0.000000000,0.000000000,0.000000000,0.000000000,0.000000000,0.000000000,0.000000000,0.000000000,0.000000000,0.000000000,0.000000000,0.000000000,0.000000000,0.000000000,0.068026877,0.000000000,0.000000000,0.000000000,0.000164064,0.018471217,0.000000000,0.000000000,0.137485444,0.000000000,0.000000000,-0.990503787,-0.106035643,0.969921002,0.000000000,-0.497032582,0.698103291,0.284961297,1.241738713
1539699426.928579,9.000000000,1539699426.917620897,0.031776559,0.000000000,0.000000000,0.000000000,0.000000000,0.000000000,0.000000000,0.000000000,0.000000000,0.000000000,0.000000000,0.002341001,0.000000000,0.000000000,0.000000000,0.000000000,0.000000000,0.000000000,0.000000000,0.000000000,0.000000000,0.000000000,0.000000000,0.000000000,0.000000000,0.000000000,0.000000000,0.000000000,0.067999725,0.000000000,0.000000000,0.000000000,0.002341001,0.017240203,0.000000000,0.000000000,0.386943112,0.000000000,0.000000000,-0.922103589,-0.223946367,0.910657593,0.000000000,-0.580465982,0.648053685,0.132573249,1.173261501
1539699427.758505,10.000000000,1539699427.720151186,0.023007827,0.000000000,0.000000000,0.000000000,0.000000000,0.000000000,0.000000000,0.000000000,0.000000000,0.000000000,0.000000000,0.002270473,0.000000000,0.000000000,0.000000000,0.000000000,0.000000000,0.000000000,0.000000000,0.000000000,0.000000000,0.000000000,0.000000000,0.000000000,0.000000000,0.000000000,0.000000000,0.000000000,0.061342971,0.000000000,0.000000000,0.000000000,0.002270473,0.019370587,0.000000000,0.000000000,0.573319039,0.000000000,0.000000000,-0.819332216,-0.277514992,0.821396791,0.000000000,-0.580881613,0.543040282,0.025851628,1.099753300
1539699429.162184,11.000000000,1539699429.125025988,0.018288869,0.000000000,0.000000000,0.000000000,0.000000000,0.000000000,0.000000000,0.000000000,0.000000000,0.000000000,0.000000000,0.000147795,0.000000000,0.000000000,0.000000000,0.000000000,0.000000000,0.000000000,0.000000000,0.000000000,0.000000000,0.000000000,0.000000000,0.000000000,0.000000000,0.000000000,0.000000000,0.000000000,0.076375839,0.000000000,0.000000000,0.000000000,0.000147795,0.026657929,0.000000000,0.000000000,0.782876170,0.000000000,0.000000000,-0.622177548,-0.286528398,0.612204598,0.000000000,-0.557001089,0.285659476,-0.016055706,0.938749720
1539699432.362620,12.000000000,1539699432.335016966,0.045885286,0.000000000,0.000000000,0.000000000,0.000000000,0.000000000,0.000000000,0.000000000,0.000000000,0.000000000,0.000000000,-0.004098910,0.000000000,0.000000000,0.000000000,0.000000000,0.000000000,0.000000000,0.000000000,0.000000000,0.000000000,0.000000000,0.000000000,0.000000000,0.000000000,0.000000000,0.000000000,0.000000000,0.113460459,0.000000000,0.000000000,0.000000000,-0.004098910,0.033330198,0.000000000,0.000000000,0.707892020,0.000000000,0.000000000,-0.706320669,-0.215481061,0.103695197,0.000000000,-0.643898080,-0.261436003,0.212935959,0.468826396
1539699434.562815,13.000000000,1539699434.542498589,0.069523294,0.000000000,0.000000000,0.000000000,0.000000000,0.000000000,0.000000000,0.000000000,0.000000000,0.000000000,0.000000000,-0.007703836,0.000000000,0.000000000,0.000000000,0.000000000,0.000000000,0.000000000,0.000000000,0.000000000,0.000000000,0.000000000,0.000000000,0.000000000,0.000000000,0.000000000,0.000000000,0.000000000,0.124592430,0.000000000,0.000000000,0.000000000,-0.007703836,0.032815041,0.000000000,0.000000000,0.570837433,0.000000000,0.000000000,-0.821063107,-0.237989316,-0.237104877,0.000000000,-0.765334722,-0.599403323,0.289356090,0.125193569
1539699435.757459,14.000000000,1539699435.746249437,0.069306952,0.000000000,0.000000000,0.000000000,0.000000000,0.000000000,0.000000000,0.000000000,0.000000000,0.000000000,0.000000000,-0.006172389,0.000000000,0.000000000,0.000000000,0.000000000,0.000000000,0.000000000,0.000000000,0.000000000,0.000000000,0.000000000,0.000000000,0.000000000,0.000000000,0.000000000,0.000000000,0.000000000,0.102406296,0.000000000,0.000000000,0.000000000,-0.006172389,0.026392116,0.000000000,0.000000000,0.335168932,0.000000000,0.000000000,-0.942158048,-0.338699360,-0.380842875,0.000000000,-0.865223631,-0.705755885,0.187824910,-0.055929866
1539699436.769227,15.000000000,1539699436.750048161,0.063478772,0.000000000,0.000000000,0.000000000,0.000000000,0.000000000,0.000000000,0.000000000,0.000000000,0.000000000,0.000000000,-0.007704611,0.000000000,0.000000000,0.000000000,0.000000000,0.000000000,0.000000000,0.000000000,0.000000000,0.000000000,0.000000000,0.000000000,0.000000000,0.000000000,0.000000000,0.000000000,0.000000000,0.085335379,0.000000000,0.000000000,0.000000000,-0.007704611,0.021239328,0.000000000,0.000000000,0.098066077,0.000000000,0.000000000,-0.995179906,-0.460405939,-0.454356258,0.000000000,-0.964305820,-0.745830633,0.043493941,-0.162881883
1539699437.597281,16.000000000,1539699437.552372217,0.052439666,0.000000000,0.000000000,0.000000000,0.000000000,0.000000000,0.000000000,0.000000000,0.000000000,0.000000000,0.000000000,-0.010753236,0.000000000,0.000000000,0.000000000,0.000000000,0.000000000,0.000000000,0.000000000,0.000000000,0.000000000,0.000000000,0.000000000,0.000000000,0.000000000,0.000000000,0.000000000,0.000000000,0.067561483,0.000000000,0.000000000,0.000000000,-0.010753236,0.017464707,0.000000000,0.000000000,0.116706708,0.000000000,0.000000000,0.993166423,-0.580870648,-0.456899094,0.000000000,-1.038864824,-0.721207299,-0.122876472,-0.192590889
1539699439.183749,17.000000000,1539699439.158644438,0.044374682,0.000000000,0.000000000,0.000000000,0.000000000,0.000000000,0.000000000,0.000000000,0.000000000,0.000000000,0.000000000,-0.015397022,0.000000000,0.000000000,0.000000000,0.000000000,0.000000000,0.000000000,0.000000000,0.000000000,0.000000000,0.000000000,0.000000000,0.000000000,0.000000000,0.000000000,0.000000000,0.000000000,0.070230454,0.000000000,0.000000000,0.000000000,-0.015397022,0.024318898,0.000000000,0.000000000,0.358832731,0.000000000,0.000000000,0.933401881,-0.821889691,-0.338396457,0.000000000,-1.243195669,-0.650286813,-0.400583713,-0.026506101
1539699439.972350,18.000000000,1539699439.961200953,0.033149609,0.000000000,0.000000000,0.000000000,0.000000000,0.000000000,0.000000000,0.000000000,0.000000000,0.000000000,0.000000000,-0.013490983,0.000000000,0.000000000,0.000000000,0.000000000,0.000000000,0.000000000,0.000000000,0.000000000,0.000000000,0.000000000,0.000000000,0.000000000,0.000000000,0.000000000,0.000000000,0.000000000,0.069082841,0.000000000,0.000000000,0.000000000,-0.013490983,0.023196612,0.000000000,0.000000000,0.551021162,0.000000000,0.000000000,0.834491270,-0.882260266,-0.250614179,0.000000000,-1.246400948,-0.555222857,-0.518119585,0.053994499
1539699440.811165,19.000000000,1539699440.766192675,0.022662046,0.000000000,0.000000000,0.000000000,0.000000000,0.000000000,0.000000000,0.000000000,0.000000000,0.000000000,0.000000000,-0.006710500,0.000000000,0.000000000,0.000000000,0.000000000,0.000000000,0.000000000,0.000000000,0.000000000,0.000000000,0.000000000,0.000000000,0.000000000,0.000000000,0.000000000,0.000000000,0.000000000,0.077390921,0.000000000,0.000000000,0.000000000,-0.006710500,0.030055583,0.000000000,0.000000000,0.802485498,0.000000000,0.000000000,0.596671623,-0.908168146,-0.166189221,0.000000000,-1.209246517,-0.512920142,-0.607089775,0.180541701
1539699441.377084,20.000000000,1539699441.365990400,0.020702047,0.000000000,0.000000000,0.000000000,0.000000000,0.000000000,0.000000000,0.000000000,0.000000000,0.000000000,0.000000000,0.001040935,0.000000000,0.000000000,0.000000000,0.000000000,0.000000000,0.000000000,0.000000000,0.000000000,0.000000000,0.000000000,0.000000000,0.000000000,0.000000000,0.000000000,0.000000000,0.000000000,0.077750475,0.000000000,0.000000000,0.000000000,0.001040935,0.027067414,0.000000000,0.000000000,0.947990478,0.000000000,0.000000000,0.318298687,-0.892948633,-0.124815344,0.000000000,-1.180712754,-0.453858890,-0.605184513,0.204228202
1539699441.982980,21.000000000,1539699441.967273712,0.022271488,0.000000000,0.000000000,0.000000000,0.000000000,0.000000000,0.000000000,0.000000000,0.000000000,0.000000000,0.000000000,0.004099406,0.000000000,0.000000000,0.000000000,0.000000000,0.000000000,0.000000000,0.000000000,0.000000000,0.000000000,0.000000000,0.000000000,0.000000000,0.000000000,0.000000000,0.000000000,0.000000000,0.079626425,0.000000000,0.000000000,0.000000000,0.004099406,0.018664837,0.000000000,0.000000000,0.999108690,0.000000000,0.000000000,0.042211678,-0.856116173,-0.111725041,0.000000000,-1.154588872,-0.384963670,-0.557643474,0.161513588
1539699442.791548,22.000000000,1539699442.769875050,0.026206996,0.000000000,0.000000000,0.000000000,0.000000000,0.000000000,0.000000000,0.000000000,0.000000000,0.000000000,0.000000000,-0.001934465,0.000000000,0.000000000,0.000000000,0.000000000,0.000000000,0.000000000,0.000000000,0.000000000,0.000000000,0.000000000,0.000000000,0.000000000,0.000000000,0.000000000,0.000000000,0.000000000,0.080314968,0.000000000,0.000000000,0.000000000,-0.001934465,0.013735245,0.000000000,0.000000000,0.964734394,0.000000000,0.000000000,-0.263225281,-0.785970397,-0.125558460,0.000000000,-1.109741895,-0.359953380,-0.462198899,0.108836459
1539699444.814680,23.000000000,1539699444.776015043,0.039864747,0.000000000,0.000000000,0.000000000,0.000000000,0.000000000,0.000000000,0.000000000,0.000000000,0.000000000,0.000000000,-0.013207667,0.000000000,0.000000000,0.000000000,0.000000000,0.000000000,0.000000000,0.000000000,0.000000000,0.000000000,0.000000000,0.000000000,0.000000000,0.000000000,0.000000000,0.000000000,0.000000000,0.105413397,0.000000000,0.000000000,0.000000000,-0.013207667,0.027054434,0.000000000,0.000000000,0.969306331,0.000000000,0.000000000,-0.245856129,-0.562602463,-0.330216694,0.000000000,-0.961925626,-0.659181334,-0.163279299,-0.001252054
1539699445.625820,24.000000000,1539699445.578504562,0.043561237,0.000000000,0.000000000,0.000000000,0.000000000,0.000000000,0.000000000,0.000000000,0.000000000,0.000000000,0.000000000,-0.009906043,0.000000000,0.000000000,0.000000000,0.000000000,0.000000000,0.000000000,0.000000000,0.000000000,0.000000000,0.000000000,0.000000000,0.000000000,0.000000000,0.000000000,0.000000000,0.000000000,0.082060156,0.000000000,0.000000000,0.000000000,-0.009906043,0.017309913,0.000000000,0.000000000,0.999798866,0.000000000,0.000000000,-0.020055591,-0.462170248,-0.366746093,0.000000000,-0.879596826,-0.629880380,-0.044743671,-0.103611807
1539699446.393909,25.000000000,1539699446.381013632,0.044953802,0.000000000,0.000000000,0.000000000,0.000000000,0.000000000,0.000000000,0.000000000,0.000000000,0.000000000,0.000000000,-0.005978167,0.000000000,0.000000000,0.000000000,0.000000000,0.000000000,0.000000000,0.000000000,0.000000000,0.000000000,0.000000000,0.000000000,0.000000000,0.000000000,0.000000000,0.000000000,0.000000000,0.067942103,0.000000000,0.000000000,0.000000000,-0.005978167,0.012966080,0.000000000,0.000000000,0.977855838,0.000000000,0.000000000,0.209279621,-0.354328507,-0.358917024,0.000000000,-0.778374742,-0.586654420,0.069717729,-0.131179628
1539699447.424957,26.000000000,1539699447.384739161,0.039038338,0.000000000,0.000000000,0.000000000,0.000000000,0.000000000,0.000000000,0.000000000,0.000000000,0.000000000,0.000000000,0.000027089,0.000000000,0.000000000,0.000000000,0.000000000,0.000000000,0.000000000,0.000000000,0.000000000,0.000000000,0.000000000,0.000000000,0.000000000,0.000000000,0.000000000,0.000000000,0.000000000,0.064212403,0.000000000,0.000000000,0.000000000,0.000027089,0.013845960,0.000000000,0.000000000,0.898859795,0.000000000,0.000000000,0.438236316,-0.222060660,-0.272419614,0.000000000,-0.617223099,-0.507757327,0.173101778,-0.037081902
1539699450.632412,27.000000000,1539699450.594900370,0.046388282,0.000000000,0.000000000,0.000000000,0.000000000,0.000000000,0.000000000,0.000000000,0.000000000,0.000000000,0.000000000,0.004109802,0.000000000,0.000000000,0.000000000,0.000000000,0.000000000,0.000000000,0.000000000,0.000000000,0.000000000,0.000000000,0.000000000,0.000000000,0.000000000,0.000000000,0.000000000,0.000000000,0.099839159,0.000000000,0.000000000,0.000000000,0.004109802,0.032801431,0.000000000,0.000000000,0.969179624,0.000000000,0.000000000,0.246355144,0.177329417,0.036019106,0.000000000,-0.253429364,-0.326204200,0.608088198,0.398242412
1539699453.244008,28.000000000,1539699453.203769207,0.050198499,0.000000000,0.000000000,0.000000000,0.000000000,0.000000000,0.000000000,0.000000000,0.000000000,0.000000000,0.000000000,-0.002220240,0.000000000,0.000000000,0.000000000,0.000000000,0.000000000,0.000000000,0.000000000,0.000000000,0.000000000,0.000000000,0.000000000,0.000000000,0.000000000,0.000000000,0.000000000,0.000000000,0.111659035,0.000000000,0.000000000,0.000000000,-0.002220240,0.053018335,0.000000000,0.000000000,0.933474104,0.000000000,0.000000000,0.358644807,0.537447251,0.228706864,0.000000000,0.089346822,-0.231807349,0.985547680,0.689221076
1539699454.044172,29.000000000,1539699454.006272316,0.035622567,0.000000000,0.000000000,0.000000000,0.000000000,0.000000000,0.000000000,0.000000000,0.000000000,0.000000000,0.000000000,-0.003701328,0.000000000,0.000000000,0.000000000,0.000000000,0.000000000,0.000000000,0.000000000,0.000000000,0.000000000,0.000000000,0.000000000,0.000000000,0.000000000,0.000000000,0.000000000,0.000000000,0.082614439,0.000000000,0.000000000,0.000000000,-0.003701328,0.040423533,0.000000000,0.000000000,0.845204551,0.000000000,0.000000000,0.534442950,0.608599955,0.311786889,0.000000000,0.231121125,-0.090325202,0.986078785,0.713898980
1539699455.267376,30.000000000,1539699455.210025311,0.029602396,0.000000000,0.000000000,0.000000000,0.000000000,0.000000000,0.000000000,0.000000000,0.000000000,0.000000000,0.000000000,-0.002682798,0.000000000,0.000000000,0.000000000,0.000000000,0.000000000,0.000000000,0.000000000,0.000000000,0.000000000,0.000000000,0.000000000,0.000000000,0.000000000,0.000000000,0.000000000,0.000000000,0.074921138,0.000000000,0.000000000,0.000000000,-0.002682798,0.039283182,0.000000000,0.000000000,0.658378144,0.000000000,0.000000000,0.752687332,0.644910874,0.480467044,0.000000000,0.300803935,0.084067335,0.989017813,0.876866752
1539699456.247478,31.000000000,1539699456.212756157,0.026215345,0.000000000,0.000000000,0.000000000,0.000000000,0.000000000,0.000000000,0.000000000,0.000000000,0.000000000,0.000000000,-0.005266666,0.000000000,0.000000000,0.000000000,0.000000000,0.000000000,0.000000000,0.000000000,0.000000000,0.000000000,0.000000000,0.000000000,0.000000000,0.000000000,0.000000000,0.000000000,0.000000000,0.056203670,0.000000000,0.000000000,0.000000000,-0.005266666,0.023569627,0.000000000,0.000000000,0.471404294,0.000000000,0.000000000,0.881917225,0.594279667,0.613455321,0.000000000,0.270456597,0.306407266,0.918102738,0.920503376
1539699459.444971,32.000000000,1539699459.424011707,0.051983638,0.000000000,0.000000000,0.000000000,0.000000000,0.000000000,0.000000000,0.000000000,0.000000000,0.000000000,0.000000000,-0.005135877,0.000000000,0.000000000,0.000000000,0.000000000,0.000000000,0.000000000,0.000000000,0.000000000,0.000000000,0.000000000,0.000000000,0.000000000,0.000000000,0.000000000,0.000000000,0.000000000,0.092336308,0.000000000,0.000000000,0.000000000,-0.005135877,0.027279500,0.000000000,0.000000000,0.283102837,0.000000000,0.000000000,0.959089560,0.247014916,1.002941705,0.000000000,-0.208983496,0.672611566,0.703013328,1.333271844
1539699461.487336,33.000000000,1539699461.430517197,0.059187827,0.000000000,0.000000000,0.000000000,0.000000000,0.000000000,0.000000000,0.000000000,0.000000000,0.000000000,0.000000000,0.001200139,0.000000000,0.000000000,0.000000000,0.000000000,0.000000000,0.000000000,0.000000000,0.000000000,0.000000000,0.000000000,0.000000000,0.000000000,0.000000000,0.000000000,0.000000000,0.000000000,0.086112587,0.000000000,0.000000000,0.000000000,0.001200139,0.023254920,0.000000000,0.000000000,0.054494910,0.000000000,0.000000000,0.998514048,-0.050054218,1.106166087,0.000000000,-0.536625187,0.801174810,0.436516750,1.411157365
1539699462.245419,34.000000000,1539699462.233025551,0.046924822,0.000000000,0.000000000,0.000000000,0.000000000,0.000000000,0.000000000,0.000000000,0.000000000,0.000000000,0.000000000,0.002799961,0.000000000,0.000000000,0.000000000,0.000000000,0.000000000,0.000000000,0.000000000,0.000000000,0.000000000,0.000000000,0.000000000,0.000000000,0.000000000,0.000000000,0.000000000,0.000000000,0.067068019,0.000000000,0.000000000,0.000000000,0.002799961,0.015997293,0.000000000,0.000000000,0.169683479,0.000000000,0.000000000,-0.985498613,-0.152437573,1.096829891,0.000000000,-0.585680331,0.843869079,0.280805185,1.349790703
1539699463.084487,35.000000000,1539699463.035553932,0.036483009,0.000000000,0.000000000,0.000000000,0.000000000,0.000000000,0.000000000,0.000000000,0.000000000,0.000000000,0.000000000,0.005718819,0.000000000,0.000000000,0.000000000,0.000000000,0.000000000,0.000000000,0.000000000,0.000000000,0.000000000,0.000000000,0.000000000,0.000000000,0.000000000,0.000000000,0.000000000,0.000000000,0.066381718,0.000000000,0.000000000,0.000000000,0.005718819,0.015768789,0.000000000,0.000000000,0.457097866,0.000000000,0.000000000,-0.889416405,-0.214452879,1.052665470,0.000000000,-0.596463397,0.801517790,0.167557638,1.303813151
1539699463.478557,36.000000000,1539699463.436809778,0.027409409,0.000000000,0.000000000,0.000000000,0.000000000,0.000000000,0.000000000,0.000000000,0.000000000,0.000000000,0.000000000,0.005762367,0.000000000,0.000000000,0.000000000,0.000000000,0.000000000,0.000000000,0.000000000,0.000000000,0.000000000,0.000000000,0.000000000,0.000000000,0.000000000,0.000000000,0.000000000,0.000000000,0.069961841,0.000000000,0.000000000,0.000000000,0.005762367,0.017329474,0.000000000,0.000000000,0.654929577,0.000000000,0.000000000,-0.755689916,-0.221213420,1.036636179,0.000000000,-0.552329164,0.773353260,0.109902324,1.299919098
1539699463.882833,37.000000000,1539699463.838066816,0.019081771,0.000000000,0.000000000,0.000000000,0.000000000,0.000000000,0.000000000,0.000000000,0.000000000,0.000000000,0.000000000,0.002704651,0.000000000,0.000000000,0.000000000,0.000000000,0.000000000,0.000000000,0.000000000,0.000000000,0.000000000,0.000000000,0.000000000,0.000000000,0.000000000,0.000000000,0.000000000,0.000000000,0.065558764,0.000000000,0.000000000,0.000000000,0.002704651,0.016815029,0.000000000,0.000000000,0.806262822,0.000000000,0.000000000,-0.591557488,-0.229304719,1.010256484,0.000000000,-0.505578286,0.750910933,0.046968848,1.269602035
1539699464.246667,38.000000000,1539699464.240534306,0.015761564,0.000000000,0.000000000,0.000000000,0.000000000,0.000000000,0.000000000,0.000000000,0.000000000,0.000000000,0.000000000,-0.001058580,0.000000000,0.000000000,0.000000000,0.000000000,0.000000000,0.000000000,0.000000000,0.000000000,0.000000000,0.000000000,0.000000000,0.000000000,0.000000000,0.000000000,0.000000000,0.000000000,0.058289753,0.000000000,0.000000000,0.000000000,-0.001058580,0.015255266,0.000000000,0.000000000,0.912569585,0.000000000,0.000000000,-0.408921451,-0.216336930,0.994107304,0.000000000,-0.467427065,0.747082884,0.034753204,1.241131724
1539699465.074545,39.000000000,1539699465.043028116,0.026570618,0.000000000,0.000000000,0.000000000,0.000000000,0.000000000,0.000000000,0.000000000,0.000000000,0.000000000,0.000000000,-0.006484351,0.000000000,0.000000000,0.000000000,0.000000000,0.000000000,0.000000000,0.000000000,0.000000000,0.000000000,0.000000000,0.000000000,0.000000000,0.000000000,0.000000000,0.000000000,0.000000000,0.068958123,0.000000000,0.000000000,0.000000000,-0.006484351,0.014875258,0.000000000,0.000000000,0.997115453,0.000000000,0.000000000,-0.075899762,-0.158349793,0.964987307,0.000000000,-0.484359722,0.721058977,0.167660136,1.208915636
1539699467.076538,40.000000000,1539699467.050520897,0.036523152,0.000000000,0.000000000,0.000000000,0.000000000,0.000000000,0.000000000,0.000000000,0.000000000,0.000000000,0.000000000,-0.006920253,0.000000000,0.000000000,0.000000000,0.000000000,0.000000000,0.000000000,0.000000000,0.000000000,0.000000000,0.000000000,0.000000000,0.000000000,0.000000000,0.000000000,0.000000000,0.000000000,0.083233527,0.000000000,0.000000000,0.000000000,-0.006920253,0.019874873,0.000000000,0.000000000,0.999933295,0.000000000,0.000000000,0.011550090,0.156818839,0.983489851,0.000000000,-0.225401788,0.701533310,0.539039467,1.265446392
1539699469.324193,41.000000000,1539699469.258197784,0.038751026,0.000000000,0.000000000,0.000000000,0.000000000,0.000000000,0.000000000,0.000000000,0.000000000,0.000000000,0.000000000,-0.010602790,0.000000000,0.000000000,0.000000000,0.000000000,0.000000000,0.000000000,0.000000000,0.000000000,0.000000000,0.000000000,0.000000000,0.000000000,0.000000000,0.000000000,0.000000000,0.000000000,0.078410392,0.000000000,0.000000000,0.000000000,-0.010602790,0.030914418,0.000000000,0.000000000,0.976551976,0.000000000,0.000000000,-0.215281763,0.494296539,0.916246512,0.000000000,0.100590935,0.564596586,0.888002143,1.267896438
1539699470.314826,42.000000000,1539699470.260538578,0.038508760,0.000000000,0.000000000,0.000000000,0.000000000,0.000000000,0.000000000,0.000000000,0.000000000,0.000000000,0.000000000,-0.014778633,0.000000000,0.000000000,0.000000000,0.000000000,0.000000000,0.000000000,0.000000000,0.000000000,0.000000000,0.000000000,0.000000000,0.000000000,0.000000000,0.000000000,0.000000000,0.000000000,0.065795660,0.000000000,0.000000000,0.000000000,-0.014778633,0.030623710,0.000000000,0.000000000,0.873792655,0.000000000,0.000000000,-0.486298670,0.589739271,0.829601322,0.000000000,0.197266291,0.479608695,0.982212250,1.179593949
1539699471.102679,43.000000000,1539699471.063136578,0.029822869,0.000000000,0.000000000,0.000000000,0.000000000,0.000000000,0.000000000,0.000000000,0.000000000,0.000000000,0.000000000,-0.011479292,0.000000000,0.000000000,0.000000000,0.000000000,0.000000000,0.000000000,0.000000000,0.000000000,0.000000000,0.000000000,0.000000000,0.000000000,0.000000000,0.000000000,0.000000000,0.000000000,0.051319593,0.000000000,0.000000000,0.000000000,-0.011479292,0.026964600,0.000000000,0.000000000,0.745124752,0.000000000,0.000000000,-0.666925111,0.624356980,0.744590162,0.000000000,0.278970999,0.416172139,0.969742961,1.073008185
1539699473.326115,44.000000000,1539699473.270638227,0.028649147,0.000000000,0.000000000,0.000000000,0.000000000,0.000000000,0.000000000,0.000000000,0.000000000,0.000000000,0.000000000,-0.007106282,0.000000000,0.000000000,0.000000000,0.000000000,0.000000000,0.000000000,0.000000000,0.000000000,0.000000000,0.000000000,0.000000000,0.000000000,0.000000000,0.000000000,0.000000000,0.000000000,0.077367139,0.000000000,0.000000000,0.000000000,-0.007106282,0.039108325,0.000000000,0.000000000,0.882861888,0.000000000,0.000000000,-0.469632714,0.674508327,0.411796646,0.000000000,0.335987149,0.016280146,1.013029506,0.807313145
1539699474.144753,45.000000000,1539699474.073171377,0.024652149,0.000000000,0.000000000,0.000000000,0.000000000,0.000000000,0.000000000,0.000000000,0.000000000,0.000000000,0.000000000,-0.004297853,0.000000000,0.000000000,0.000000000,0.000000000,0.000000000,0.000000000,0.000000000,0.000000000,0.000000000,0.000000000,0.000000000,0.000000000,0.000000000,0.000000000,0.000000000,0.000000000,0.063483528,0.000000000,0.000000000,0.000000000,-0.004297853,0.032277298,0.000000000,0.000000000,0.966705854,0.000000000,0.000000000,-0.255890195,0.754728487,0.334966270,0.000000000,0.440708434,-0.024351403,1.068748541,0.694283943
1539699474.912019,46.000000000,1539699474.875651598,0.024363157,0.000000000,0.000000000,0.000000000,0.000000000,0.000000000,0.000000000,0.000000000,0.000000000,0.000000000,0.000000000,-0.003498401,0.000000000,0.000000000,0.000000000,0.000000000,0.000000000,0.000000000,0.000000000,0.000000000,0.000000000,0.000000000,0.000000000,0.000000000,0.000000000,0.000000000,0.000000000,0.000000000,0.053378281,0.000000000,0.000000000,0.000000000,-0.003498401,0.024958642,0.000000000,0.000000000,0.999976878,0.000000000,0.000000000,0.006800261,0.844974701,0.310270086,0.000000000,0.532800664,-0.005696000,1.157148739,0.626236173
1539699476.498727,47.000000000,1539699476.482024908,0.027430248,0.000000000,0.000000000,0.000000000,0.000000000,0.000000000,0.000000000,0.000000000,0.000000000,0.000000000,0.000000000,-0.001576811,0.000000000,0.000000000,0.000000000,0.000000000,0.000000000,0.000000000,0.000000000,0.000000000,0.000000000,0.000000000,0.000000000,0.000000000,0.000000000,0.000000000,0.000000000,0.000000000,0.063623827,0.000000000,0.000000000,0.000000000,-0.001576811,0.027119746,0.000000000,0.000000000,0.970196625,0.000000000,0.000000000,0.242319023,1.093594669,0.365289844,0.000000000,0.762353079,0.035928364,1.424836259,0.694651325
1539699478.714949,48.000000000,1539699478.689760685,0.035139416,0.000000000,0.000000000,0.000000000,0.000000000,0.000000000,0.000000000,0.000000000,0.000000000,0.000000000,0.000000000,-0.004726295,0.000000000,0.000000000,0.000000000,0.000000000,0.000000000,0.000000000,0.000000000,0.000000000,0.000000000,0.000000000,0.000000000,0.000000000,0.000000000,0.000000000,0.000000000,0.000000000,0.086457514,0.000000000,0.000000000,0.000000000,-0.004726295,0.038706561,0.000000000,0.000000000,0.999987311,0.000000000,0.000000000,0.005037590,1.408179338,0.484427353,0.000000000,1.033269129,0.090947689,1.783089547,0.877907017
1539699479.916987,49.000000000,1539699479.893253088,0.032905659,0.000000000,0.000000000,0.000000000,0.000000000,0.000000000,0.000000000,0.000000000,0.000000000,0.000000000,0.000000000,-0.011906885,0.000000000,0.000000000,0.000000000,0.000000000,0.000000000,0.000000000,0.000000000,0.000000000,0.000000000,0.000000000,0.000000000,0.000000000,0.000000000,0.000000000,0.000000000,0.000000000,0.076866492,0.000000000,0.000000000,0.000000000,-0.011906885,0.036933474,0.000000000,0.000000000,0.965074157,0.000000000,0.000000000,-0.261976854,1.576342902,0.436149110,0.000000000,1.213544564,0.051787435,1.939141240,0.820510786
1539699480.716977,50.000000000,1539699480.695802689,0.022330831,0.000000000,0.000000000,0.000000000,0.000000000,0.000000000,0.000000000,0.000000000,0.000000000,0.000000000,0.000000000,-0.012217267,0.000000000,0.000000000,0.000000000,0.000000000,0.000000000,0.000000000,0.000000000,0.000000000,0.000000000,0.000000000,0.000000000,0.000000000,0.000000000,0.000000000,0.000000000,0.000000000,0.070257306,0.000000000,0.000000000,0.000000000,-0.012217267,0.035246382,0.000000000,0.000000000,0.875551839,0.000000000,0.000000000,-0.483124184,1.645197874,0.367360545,0.000000000,1.346327792,-0.008119853,1.944067956,0.742840943
1539699481.526454,51.000000000,1539699481.498258114,0.015446185,0.000000000,0.000000000,0.000000000,0.000000000,0.000000000,0.000000000,0.000000000,0.000000000,0.000000000,0.000000000,-0.009186280,0.000000000,0.000000000,0.000000000,0.000000000,0.000000000,0.000000000,0.000000000,0.000000000,0.000000000,0.000000000,0.000000000,0.000000000,0.000000000,0.000000000,0.000000000,0.000000000,0.064800626,0.000000000,0.000000000,0.000000000,-0.009186280,0.036600991,0.000000000,0.000000000,0.738131548,0.000000000,0.000000000,-0.674656815,1.674701372,0.264489563,0.000000000,1.426136010,-0.118138145,1.923266735,0.647117272
1539699482.519128,52.000000000,1539699482.502033472,0.012824743,0.000000000,0.000000000,0.000000000,0.000000000,0.000000000,0.000000000,0.000000000,0.000000000,0.000000000,0.000000000,-0.001258260,0.000000000,0.000000000,0.000000000,0.000000000,0.000000000,0.000000000,0.000000000,0.000000000,0.000000000,0.000000000,0.000000000,0.000000000,0.000000000,0.000000000,0.000000000,0.000000000,0.065292833,0.000000000,0.000000000,0.000000000,-0.001258260,0.039779477,0.000000000,0.000000000,0.539320787,0.000000000,0.000000000,-0.842100403,1.643235723,0.123261565,0.000000000,1.416742957,-0.275634295,1.869728490,0.522157425
1539699484.752359,53.000000000,1539699484.708371162,0.028024360,0.000000000,0.000000000,0.000000000,0.000000000,0.000000000,0.000000000,0.000000000,0.000000000,0.000000000,0.000000000,0.016366687,0.000000000,0.000000000,0.000000000,0.000000000,0.000000000,0.000000000,0.000000000,0.000000000,0.000000000,0.000000000,0.000000000,0.000000000,0.000000000,0.000000000,0.000000000,0.000000000,0.104177686,0.000000000,0.000000000,0.000000000,0.016366687,0.043340192,0.000000000,0.000000000,0.557263434,0.000000000,0.000000000,-0.830335754,1.433281265,-0.155873190,0.000000000,1.098471708,-0.572239334,1.768090822,0.260492955
1539699486.531685,54.000000000,1539699486.514652014,0.041978132,0.000000000,0.000000000,0.000000000,0.000000000,0.000000000,0.000000000,0.000000000,0.000000000,0.000000000,0.000000000,0.021724883,0.000000000,0.000000000,0.000000000,0.000000000,0.000000000,0.000000000,0.000000000,0.000000000,0.000000000,0.000000000,0.000000000,0.000000000,0.000000000,0.000000000,0.000000000,0.000000000,0.117501777,0.000000000,0.000000000,0.000000000,0.021724883,0.046536802,0.000000000,0.000000000,0.578805733,0.000000000,0.000000000,-0.815465464,1.380165460,-0.417617296,0.000000000,0.970394148,-0.849065098,1.789936771,0.013830506
1539699487.370690,55.000000000,1539699487.317118406,0.045228456,0.000000000,0.000000000,0.000000000,0.000000000,0.000000000,0.000000000,0.000000000,0.000000000,0.000000000,0.000000000,0.022492761,0.000000000,0.000000000,0.000000000,0.000000000,0.000000000,0.000000000,0.000000000,0.000000000,0.000000000,0.000000000,0.000000000,0.000000000,0.000000000,0.000000000,0.000000000,0.000000000,0.116129990,0.000000000,0.000000000,0.000000000,0.022492761,0.038534266,0.000000000,0.000000000,0.350725782,0.000000000,0.000000000,-0.936478204,1.316931269,-0.492364343,0.000000000,0.891591610,-0.884967275,1.742270927,-0.099761411
1539699488.365222,56.000000000,1539699488.320998907,0.049516287,0.000000000,0.000000000,0.000000000,0.000000000,0.000000000,0.000000000,0.000000000,0.000000000,0.000000000,0.000000000,0.016866310,0.000000000,0.000000000,0.000000000,0.000000000,0.000000000,0.000000000,0.000000000,0.000000000,0.000000000,0.000000000,0.000000000,0.000000000,0.000000000,0.000000000,0.000000000,0.000000000,0.116667110,0.000000000,0.000000000,0.000000000,0.016866310,0.026369401,0.000000000,0.000000000,0.081932296,0.000000000,0.000000000,-0.996637898,1.201420282,-0.540135977,0.000000000,0.756375174,-0.864909134,1.646465390,-0.215362821
1539699489.132589,57.000000000,1539699489.123526335,0.054083473,0.000000000,0.000000000,0.000000000,0.000000000,0.000000000,0.000000000,0.000000000,0.000000000,0.000000000,0.000000000,0.010213398,0.000000000,0.000000000,0.000000000,0.000000000,0.000000000,0.000000000,0.000000000,0.000000000,0.000000000,0.000000000,0.000000000,0.000000000,0.000000000,0.000000000,0.000000000,0.000000000,0.109768506,0.000000000,0.000000000,0.000000000,0.010213398,0.019127633,0.000000000,0.000000000,0.210591493,0.000000000,0.000000000,0.977574152,1.102994226,-0.538632844,0.000000000,0.637877153,-0.815238214,1.568111300,-0.262027474
1539699489.971298,58.000000000,1539699489.925973177,0.047826405,0.000000000,0.000000000,0.000000000,0.000000000,0.000000000,0.000000000,0.000000000,0.000000000,0.000000000,0.000000000,0.002418604,0.000000000,0.000000000,0.000000000,0.000000000,0.000000000,0.000000000,0.000000000,0.000000000,0.000000000,0.000000000,0.000000000,0.000000000,0.000000000,0.000000000,0.000000000,0.000000000,0.108040224,0.000000000,0.000000000,0.000000000,0.002418604,0.018998822,0.000000000,0.000000000,0.486468948,0.000000000,0.000000000,0.873697867,1.056601809,-0.493282508,0.000000000,0.619216829,-0.768954936,1.493986789,-0.217610081
1539699490.950983,59.000000000,1539699490.929764271,0.029201964,0.000000000,0.000000000,0.000000000,0.000000000,0.000000000,0.000000000,0.000000000,0.000000000,0.000000000,0.000000000,-0.000557343,0.000000000,0.000000000,0.000000000,0.000000000,0.000000000,0.000000000,0.000000000,0.000000000,0.000000000,0.000000000,0.000000000,0.000000000,0.000000000,0.000000000,0.000000000,0.000000000,0.094737676,0.000000000,0.000000000,0.000000000,-0.000557343,0.020818120,0.000000000,0.000000000,0.694008422,0.000000000,0.000000000,0.719966881,1.015314487,-0.368070728,0.000000000,0.673542841,-0.656640441,1.357086132,-0.079501015
1539699493.154990,60.000000000,1539699493.137133837,0.019057905,0.000000000,0.000000000,0.000000000,0.000000000,0.000000000,0.000000000,0.000000000,0.000000000,0.000000000,0.000000000,0.000491317,0.000000000,0.000000000,0.000000000,0.000000000,0.000000000,0.000000000,0.000000000,0.000000000,0.000000000,0.000000000,0.000000000,0.000000000,0.000000000,0.000000000,0.000000000,0.000000000,0.108172144,0.000000000,0.000000000,0.000000000,0.000491317,0.029359755,0.000000000,0.000000000,0.580795056,0.000000000,0.000000000,0.814049816,1.022449442,-0.027346156,0.000000000,0.746348701,-0.370039928,1.298550183,0.315347616
1539699494.186295,61.000000000,1539699494.139678955,0.017187381,0.000000000,0.000000000,0.000000000,0.000000000,0.000000000,0.000000000,0.000000000,0.000000000,0.000000000,0.000000000,-0.002009899,0.000000000,0.000000000,0.000000000,0.000000000,0.000000000,0.000000000,0.000000000,0.000000000,0.000000000,0.000000000,0.000000000,0.000000000,0.000000000,0.000000000,0.000000000,0.000000000,0.087572970,0.000000000,0.000000000,0.000000000,-0.002009899,0.022354145,0.000000000,0.000000000,0.391131433,0.000000000,0.000000000,0.920334831,0.969934328,0.091765987,0.000000000,0.707733026,-0.207260063,1.232135631,0.390792037
1539699496.574309,62.000000000,1539699496.548390865,0.032380698,0.000000000,0.000000000,0.000000000,0.000000000,0.000000000,0.000000000,0.000000000,0.000000000,0.000000000,0.000000000,-0.003715480,0.000000000,0.000000000,0.000000000,0.000000000,0.000000000,0.000000000,0.000000000,0.000000000,0.000000000,0.000000000,0.000000000,0.000000000,0.000000000,0.000000000,0.000000000,0.000000000,0.096898768,0.000000000,0.000000000,0.000000000,-0.003715480,0.026505994,0.000000000,0.000000000,0.478141662,0.000000000,0.000000000,0.878282728,0.696644599,0.349734629,0.000000000,0.336751848,0.024121398,1.056537351,0.675347861
1539699498.766946,63.000000000,1539699498.754641771,0.047569631,0.000000000,0.000000000,0.000000000,0.000000000,0.000000000,0.000000000,0.000000000,0.000000000,0.000000000,0.000000000,-0.003292724,0.000000000,0.000000000,0.000000000,0.000000000,0.000000000,0.000000000,0.000000000,0.000000000,0.000000000,0.000000000,0.000000000,0.000000000,0.000000000,0.000000000,0.000000000,0.000000000,0.101604207,0.000000000,0.000000000,0.000000000,-0.003292724,0.037829601,0.000000000,0.000000000,0.482275221,0.000000000,0.000000000,0.876019755,0.567013739,0.672540823,0.000000000,0.130804472,0.283544158,1.003223006,1.061537487
1539699499.981547,64.000000000,1539699499.959637403,0.044847890,0.000000000,0.000000000,0.000000000,0.000000000,0.000000000,0.000000000,0.000000000,0.000000000,0.000000000,0.000000000,-0.004466025,0.000000000,0.000000000,0.000000000,0.000000000,0.000000000,0.000000000,0.000000000,0.000000000,0.000000000,0.000000000,0.000000000,0.000000000,0.000000000,0.000000000,0.000000000,0.000000000,0.078239917,0.000000000,0.000000000,0.000000000,-0.004466025,0.027630061,0.000000000,0.000000000,0.245855750,0.000000000,0.000000000,0.969306427,0.420068914,0.801266146,0.000000000,-0.003477493,0.468820296,0.843615320,1.133711996
1539699502.598823,65.000000000,1539699502.568375587,0.061652686,0.000000000,0.000000000,0.000000000,0.000000000,0.000000000,0.000000000,0.000000000,0.000000000,0.000000000,0.000000000,0.003558032,0.000000000,0.000000000,0.000000000,0.000000000,0.000000000,0.000000000,0.000000000,0.000000000,0.000000000,0.000000000,0.000000000,0.000000000,0.000000000,0.000000000,0.000000000,0.000000000,0.093893196,0.000000000,0.000000000,0.000000000,0.003558032,0.035139106,0.000000000,0.000000000,0.147288403,0.000000000,0.000000000,0.989093588,0.032102307,0.917356849,0.000000000,-0.464496873,0.542448293,0.528701486,1.292265406
1539699504.630374,66.000000000,1539699504.574771404,0.073629853,0.000000000,0.000000000,0.000000000,0.000000000,0.000000000,0.000000000,0.000000000,0.000000000,0.000000000,0.000000000,0.002974472,0.000000000,0.000000000,0.000000000,0.000000000,0.000000000,0.000000000,0.000000000,0.000000000,0.000000000,0.000000000,0.000000000,0.000000000,0.000000000,0.000000000,0.000000000,0.000000000,0.106534170,0.000000000,0.000000000,0.000000000,0.002974472,0.041162263,0.000000000,0.000000000,0.148437153,0.000000000,0.000000000,-0.988921843,-0.216156600,1.000400363,0.000000000,-0.758853026,0.594630659,0.326539826,1.406170066
1539699505.387975,67.000000000,1539699505.377249956,0.053148229,0.000000000,0.000000000,0.000000000,0.000000000,0.000000000,0.000000000,0.000000000,0.000000000,0.000000000,0.000000000,0.005984462,0.000000000,0.000000000,0.000000000,0.000000000,0.000000000,0.000000000,0.000000000,0.000000000,0.000000000,0.000000000,0.000000000,0.000000000,0.000000000,0.000000000,0.000000000,0.000000000,0.094711706,0.000000000,0.000000000,0.000000000,0.005984462,0.032305670,0.000000000,0.000000000,0.432322471,0.000000000,0.000000000,-0.901719070,-0.283300426,0.962673873,0.000000000,-0.744378420,0.603198310,0.177777568,1.322149436
1539699506.428440,68.000000000,1539699506.380977869,0.029828236,0.000000000,0.000000000,0.000000000,0.000000000,0.000000000,0.000000000,0.000000000,0.000000000,0.000000000,0.000000000,0.003193875,0.000000000,0.000000000,0.000000000,0.000000000,0.000000000,0.000000000,0.000000000,0.000000000,0.000000000,0.000000000,0.000000000,0.000000000,0.000000000,0.000000000,0.000000000,0.000000000,0.089004622,0.000000000,0.000000000,0.000000000,0.003193875,0.027130661,0.000000000,0.000000000,0.664462087,0.000000000,0.000000000,-0.747321975,-0.341238348,0.841253332,0.000000000,-0.686655409,0.511825577,0.004178713,1.170681088
1539699508.610564,69.000000000,1539699508.588514805,0.025791920,0.000000000,0.000000000,0.000000000,0.000000000,0.000000000,0.000000000,0.000000000,0.000000000,0.000000000,0.000000000,-0.002878592,0.000000000,0.000000000,0.000000000,0.000000000,0.000000000,0.000000000,0.000000000,0.000000000,0.000000000,0.000000000,0.000000000,0.000000000,0.000000000,0.000000000,0.000000000,0.000000000,0.108962088,0.000000000,0.000000000,0.000000000,-0.002878592,0.032111282,0.000000000,0.000000000,0.801474775,0.000000000,0.000000000,-0.598028582,-0.277912101,0.521759598,0.000000000,-0.599109362,0.163367177,0.043285159,0.880152019
1539699511.020185,70.000000000,1539699510.996000051,0.048752936,0.000000000,0.000000000,0.000000000,0.000000000,0.000000000,0.000000000,0.000000000,0.000000000,0.000000000,0.000000000,-0.005816761,0.000000000,0.000000000,0.000000000,0.000000000,0.000000000,0.000000000,0.000000000,0.000000000,0.000000000,0.000000000,0.000000000,0.000000000,0.000000000,0.000000000,0.000000000,0.000000000,0.117014423,0.000000000,0.000000000,0.000000000,-0.005816761,0.030165088,0.000000000,0.000000000,0.852285924,0.000000000,0.000000000,-0.523076193,-0.174738047,0.160158926,0.000000000,-0.616339388,-0.187203065,0.266863295,0.507520917
1539699511.828722,71.000000000,1539699511.798496962,0.047589931,0.000000000,0.000000000,0.000000000,0.000000000,0.000000000,0.000000000,0.000000000,0.000000000,0.000000000,0.000000000,-0.003860744,0.000000000,0.000000000,0.000000000,0.000000000,0.000000000,0.000000000,0.000000000,0.000000000,0.000000000,0.000000000,0.000000000,0.000000000,0.000000000,0.000000000,0.000000000,0.000000000,0.094511203,0.000000000,0.000000000,0.000000000,-0.003860744,0.021686414,0.000000000,0.000000000,0.957086001,0.000000000,0.000000000,-0.289804048,-0.106286171,0.083568247,0.000000000,-0.542588504,-0.210957910,0.330016162,0.378094404
1539699512.620526,72.000000000,1539699512.601194620,0.044321721,0.000000000,0.000000000,0.000000000,0.000000000,0.000000000,0.000000000,0.000000000,0.000000000,0.000000000,0.000000000,-0.001298159,0.000000000,0.000000000,0.000000000,0.000000000,0.000000000,0.000000000,0.000000000,0.000000000,0.000000000,0.000000000,0.000000000,0.000000000,0.000000000,0.000000000,0.000000000,0.000000000,0.080116862,0.000000000,0.000000000,0.000000000,-0.001298159,0.015498432,0.000000000,0.000000000,0.999832703,0.000000000,0.000000000,-0.018291119,-0.015116643,0.055952758,0.000000000,-0.436171131,-0.193032639,0.405937845,0.304938156
1539699513.646638,73.000000000,1539699513.604767323,0.037413274,0.000000000,0.000000000,0.000000000,0.000000000,0.000000000,0.000000000,0.000000000,0.000000000,0.000000000,0.000000000,0.002982901,0.000000000,0.000000000,0.000000000,0.000000000,0.000000000,0.000000000,0.000000000,0.000000000,0.000000000,0.000000000,0.000000000,0.000000000,0.000000000,0.000000000,0.000000000,0.000000000,0.062960521,0.000000000,0.000000000,0.000000000,0.002982901,0.015001818,0.000000000,0.000000000,0.975953452,0.000000000,0.000000000,0.217979033,0.121700614,0.084490698,0.000000000,-0.265149611,-0.160473122,0.508550838,0.329454518
1539699514.822224,74.000000000,1539699514.809743166,0.030449320,0.000000000,0.000000000,0.000000000,0.000000000,0.000000000,0.000000000,0.000000000,0.000000000,0.000000000,0.000000000,0.004304631,0.000000000,0.000000000,0.000000000,0.000000000,0.000000000,0.000000000,0.000000000,0.000000000,0.000000000,0.000000000,0.000000000,0.000000000,0.000000000,0.000000000,0.000000000,0.000000000,0.054720828,0.000000000,0.000000000,0.000000000,0.004304631,0.015442581,0.000000000,0.000000000,0.999716323,0.000000000,0.000000000,-0.023817517,0.287890950,0.126077320,0.000000000,-0.061103717,-0.122459042,0.636885618,0.374613681
1539699515.421690,75.000000000,1539699515.411011696,0.031042105,0.000000000,0.000000000,0.000000000,0.000000000,0.000000000,0.000000000,0.000000000,0.000000000,0.000000000,0.000000000,-0.000438067,0.000000000,0.000000000,0.000000000,0.000000000,0.000000000,0.000000000,0.000000000,0.000000000,0.000000000,0.000000000,0.000000000,0.000000000,0.000000000,0.000000000,0.000000000,0.000000000,0.044800289,0.000000000,0.000000000,0.000000000,-0.000438067,0.013862250,0.000000000,0.000000000,0.954554598,0.000000000,0.000000000,-0.298036103,0.348251054,0.105270208,0.000000000,-0.004124342,-0.130205904,0.700626450,0.340746319
1539699515.857957,76.000000000,1539699515.816014767,0.024916262,0.000000000,0.000000000,0.000000000,0.000000000,0.000000000,0.000000000,0.000000000,0.000000000,0.000000000,0.000000000,-0.003601068,0.000000000,0.000000000,0.000000000,0.000000000,0.000000000,0.000000000,0.000000000,0.000000000,0.000000000,0.000000000,0.000000000,0.000000000,0.000000000,0.000000000,0.000000000,0.000000000,0.035231774,0.000000000,0.000000000,0.000000000,-0.003601068,0.012101700,0.000000000,0.000000000,0.874501865,0.000000000,0.000000000,-0.485022153,0.379003483,0.074528307,0.000000000,0.063305764,-0.145487145,0.694701203,0.294543760
1539699516.433465,77.000000000,1539699516.414658070,0.019459318,0.000000000,0.000000000,0.000000000,0.000000000,0.000000000,0.000000000,0.000000000,0.000000000,0.000000000,0.000000000,-0.003794161,0.000000000,0.000000000,0.000000000,0.000000000,0.000000000,0.000000000,0.000000000,0.000000000,0.000000000,0.000000000,0.000000000,0.000000000,0.000000000,0.000000000,0.000000000,0.000000000,0.040432874,0.000000000,0.000000000,0.000000000,-0.003794161,0.018553465,0.000000000,0.000000000,0.687810531,0.000000000,0.000000000,-0.725890263,0.393623475,0.014892745,0.000000000,0.114630154,-0.257529466,0.672616797,0.287314956
1539699516.828919,78.000000000,1539699516.815885305,0.015344102,0.000000000,0.000000000,0.000000000,0.000000000,0.000000000,0.000000000,0.000000000,0.000000000,0.000000000,0.000000000,-0.001112507,0.000000000,0.000000000,0.000000000,0.000000000,0.000000000,0.000000000,0.000000000,0.000000000,0.000000000,0.000000000,0.000000000,0.000000000,0.000000000,0.000000000,0.000000000,0.000000000,0.035967311,0.000000000,0.000000000,0.000000000,-0.001112507,0.016564730,0.000000000,0.000000000,0.527970484,0.000000000,0.000000000,-0.849262720,0.380559621,-0.005562419,0.000000000,0.132816999,-0.262970500,0.628302244,0.251845662
1539699517.445168,79.000000000,1539699517.418391466,0.016218382,0.000000000,0.000000000,0.000000000,0.000000000,0.000000000,0.000000000,0.000000000,0.000000000,0.000000000,0.000000000,0.003602135,0.000000000,0.000000000,0.000000000,0.000000000,0.000000000,0.000000000,0.000000000,0.000000000,0.000000000,0.000000000,0.000000000,0.000000000,0.000000000,0.000000000,0.000000000,0.000000000,0.036993293,0.000000000,0.000000000,0.000000000,0.003602135,0.014746968,0.000000000,0.000000000,0.301686540,0.000000000,0.000000000,-0.953407170,0.337662329,-0.039051095,0.000000000,0.082959510,-0.281925284,0.592365148,0.203823094
1539699519.860759,80.000000000,1539699519.825900555,0.036398753,0.000000000,0.000000000,0.000000000,0.000000000,0.000000000,0.000000000,0.000000000,0.000000000,0.000000000,0.000000000,0.006399759,0.000000000,0.000000000,0.000000000,0.000000000,0.000000000,0.000000000,0.000000000,0.000000000,0.000000000,0.000000000,0.000000000,0.000000000,0.000000000,0.000000000,0.000000000,0.000000000,0.068943395,0.000000000,0.000000000,0.000000000,0.006399759,0.018488589,0.000000000,0.000000000,0.249416158,0.000000000,0.000000000,-0.968396396,-0.007878601,-0.176277468,0.000000000,-0.389447746,-0.448222971,0.373690545,0.095668034
1539699522.655951,81.000000000,1539699522.634487629,0.062644067,0.000000000,0.000000000,0.000000000,0.000000000,0.000000000,0.000000000,0.000000000,0.000000000,0.000000000,0.000000000,-0.003610297,0.000000000,0.000000000,0.000000000,0.000000000,0.000000000,0.000000000,0.000000000,0.000000000,0.000000000,0.000000000,0.000000000,0.000000000,0.000000000,0.000000000,0.000000000,0.000000000,0.107110096,0.000000000,0.000000000,0.000000000,-0.003610297,0.030826276,0.000000000,0.000000000,0.062392534,0.000000000,0.000000000,-0.998051688,-0.401474557,-0.344686799,0.000000000,-0.902050496,-0.695835066,0.099101381,0.006461467
1539699524.255755,82.000000000,1539699524.239510536,0.062587100,0.000000000,0.000000000,0.000000000,0.000000000,0.000000000,0.000000000,0.000000000,0.000000000,0.000000000,0.000000000,-0.013363082,0.000000000,0.000000000,0.000000000,0.000000000,0.000000000,0.000000000,0.000000000,0.000000000,0.000000000,0.000000000,0.000000000,0.000000000,0.000000000,0.000000000,0.000000000,0.000000000,0.102341474,0.000000000,0.000000000,0.000000000,-0.013363082,0.034212746,0.000000000,0.000000000,0.179487162,0.000000000,0.000000000,0.983760316,-0.678381457,-0.290230625,0.000000000,-1.178729735,-0.660164379,-0.178033178,0.079703130
1539699525.268803,83.000000000,1539699525.243335485,0.053628273,0.000000000,0.000000000,0.000000000,0.000000000,0.000000000,0.000000000,0.000000000,0.000000000,0.000000000,0.000000000,-0.017258096,0.000000000,0.000000000,0.000000000,0.000000000,0.000000000,0.000000000,0.000000000,0.000000000,0.000000000,0.000000000,0.000000000,0.000000000,0.000000000,0.000000000,0.000000000,0.000000000,0.094446357,0.000000000,0.000000000,0.000000000,-0.017258096,0.034881356,0.000000000,0.000000000,0.463105966,0.000000000,0.000000000,0.886302919,-0.799638357,-0.210663798,0.000000000,-1.262793939,-0.584194819,-0.336482775,0.162867224
1539699525.663847,84.000000000,1539699525.644663334,0.035265062,0.000000000,0.000000000,0.000000000,0.000000000,0.000000000,0.000000000,0.000000000,0.000000000,0.000000000,0.000000000,-0.012986121,0.000000000,0.000000000,0.000000000,0.000000000,0.000000000,0.000000000,0.000000000,0.000000000,0.000000000,0.000000000,0.000000000,0.000000000,0.000000000,0.000000000,0.000000000,0.000000000,0.081441820,0.000000000,0.000000000,0.000000000,-0.012986121,0.027706604,0.000000000,0.000000000,0.642266126,0.000000000,0.000000000,0.766481717,-0.823820637,-0.174428154,0.000000000,-1.199400519,-0.507334171,-0.448240755,0.158477864
1539699526.098348,85.000000000,1539699526.045776844,0.022700287,0.000000000,0.000000000,0.000000000,0.000000000,0.000000000,0.000000000,0.000000000,0.000000000,0.000000000,0.000000000,-0.006504261,0.000000000,0.000000000,0.000000000,0.000000000,0.000000000,0.000000000,0.000000000,0.000000000,0.000000000,0.000000000,0.000000000,0.000000000,0.000000000,0.000000000,0.000000000,0.000000000,0.067574004,0.000000000,0.000000000,0.000000000,-0.006504261,0.019574427,0.000000000,0.000000000,0.787095374,0.000000000,0.000000000,0.616831316,-0.835274098,-0.139328155,0.000000000,-1.136606384,-0.419145431,-0.533941811,0.140489122
1539699526.474311,86.000000000,1539699526.447203159,0.018111160,0.000000000,0.000000000,0.000000000,0.000000000,0.000000000,0.000000000,0.000000000,0.000000000,0.000000000,0.000000000,-0.001935325,0.000000000,0.000000000,0.000000000,0.000000000,0.000000000,0.000000000,0.000000000,0.000000000,0.000000000,0.000000000,0.000000000,0.000000000,0.000000000,0.000000000,0.000000000,0.000000000,0.060163431,0.000000000,0.000000000,0.000000000,-0.001935325,0.015900823,0.000000000,0.000000000,0.898466414,0.000000000,0.000000000,0.439042256,-0.829296037,-0.111347138,0.000000000,-1.098451454,-0.363544067,-0.560140621,0.140849791
1539699526.870039,87.000000000,1539699526.848251820,0.013960819,0.000000000,0.000000000,0.000000000,0.000000000,0.000000000,0.000000000,0.000000000,0.000000000,0.000000000,0.000000000,0.001496328,0.000000000,0.000000000,0.000000000,0.000000000,0.000000000,0.000000000,0.000000000,0.000000000,0.000000000,0.000000000,0.000000000,0.000000000,0.000000000,0.000000000,0.000000000,0.000000000,0.052833011,0.000000000,0.000000000,0.000000000,0.001496328,0.012259292,0.000000000,0.000000000,0.968748416,0.000000000,0.000000000,0.248045372,-0.814854959,-0.091201281,0.000000000,-1.051166775,-0.312644659,-0.578543143,0.130242097
1539699527.466626,88.000000000,1539699527.450754404,0.024615579,0.000000000,0.000000000,0.000000000,0.000000000,0.000000000,0.000000000,0.000000000,0.000000000,0.000000000,0.000000000,0.002525084,0.000000000,0.000000000,0.000000000,0.000000000,0.000000000,0.000000000,0.000000000,0.000000000,0.000000000,0.000000000,0.000000000,0.000000000,0.000000000,0.000000000,0.000000000,0.000000000,0.058385262,0.000000000,0.000000000,0.000000000,0.002525084,0.009981311,0.000000000,0.000000000,0.998613032,0.000000000,0.000000000,-0.052649907,-0.776341712,-0.086906399,0.000000000,-1.090128768,-0.286719423,-0.462554657,0.112906624
1539699528.275309,89.000000000,1539699528.253272533,0.026062804,0.000000000,0.000000000,0.000000000,0.000000000,0.000000000,0.000000000,0.000000000,0.000000000,0.000000000,0.000000000,-0.002503685,0.000000000,0.000000000,0.000000000,0.000000000,0.000000000,0.000000000,0.000000000,0.000000000,0.000000000,0.000000000,0.000000000,0.000000000,0.000000000,0.000000000,0.000000000,0.000000000,0.058513371,0.000000000,0.000000000,0.000000000,-0.002503685,0.009968642,0.000000000,0.000000000,0.946597858,0.000000000,0.000000000,-0.322416648,-0.716201643,-0.116872428,0.000000000,-1.039081213,-0.316558606,-0.393322072,0.082813751
