__time,/amcl_pose/header/seq,/amcl_pose/header/stamp,/amcl_pose/pose/covariance[0],/amcl_pose/pose/covariance[10],/amcl_pose/pose/covariance[11],/amcl_pose/pose/covariance[12],/amcl_pose/pose/covariance[13],/amcl_pose/pose/covariance[14],/amcl_pose/pose/covariance[15],/amcl_pose/pose/covariance[16],/amcl_pose/pose/covariance[17],/amcl_pose/pose/covariance[18],/amcl_pose/pose/covariance[19],/amcl_pose/pose/covariance[1],/amcl_pose/pose/covariance[20],/amcl_pose/pose/covariance[21],/amcl_pose/pose/covariance[22],/amcl_pose/pose/covariance[23],/amcl_pose/pose/covariance[24],/amcl_pose/pose/covariance[25],/amcl_pose/pose/covariance[26],/amcl_pose/pose/covariance[27],/amcl_pose/pose/covariance[28],/amcl_pose/pose/covariance[29],/amcl_pose/pose/covariance[2],/amcl_pose/pose/covariance[30],/amcl_pose/pose/covariance[31],/amcl_pose/pose/covariance[32],/amcl_pose/pose/covariance[33],/amcl_pose/pose/covariance[34],/amcl_pose/pose/covariance[35],/amcl_pose/pose/covariance[3],/amcl_pose/pose/covariance[4],/amcl_pose/pose/covariance[5],/amcl_pose/pose/covariance[6],/amcl_pose/pose/covariance[7],/amcl_pose/pose/covariance[8],/amcl_pose/pose/covariance[9],/amcl_pose/pose/pose/orientation/w,/amcl_pose/pose/pose/orientation/x,/amcl_pose/pose/pose/orientation/y,/amcl_pose/pose/pose/orientation/z,/amcl_pose/pose/pose/position/x,/amcl_pose/pose/pose/position/y,/amcl_pose/pose/pose/position/z,Lower Bound X,Lower Bound Y,Upper Bound X,Upper Bound Y
1539699414.500108,1.000000000,1539699414.475733757,0.155669303,0.000000000,0.000000000,0.000000000,0.000000000,0.000000000,0.000000000,0.000000000,0.000000000,0.000000000,0.000000000,-0.009493929,0.000000000,0.000000000,0.000000000,0.000000000,0.000000000,0.000000000,0.000000000,0.000000000,0.000000000,0.000000000,0.000000000,0.000000000,0.000000000,0.000000000,0.000000000,0.000000000,0.066931414,0.000000000,0.000000000,0.000000000,-0.009493929,0.138833678,0.000000000,0.000000000,0.999999124,0.000000000,0.000000000,0.001323649,0.041581279,-0.004422352,0.000000000,-0.747517707,-0.749630185,0.830680265,0.740785480
1539699414.903902,2.000000000,1539699414.877129316,0.091772953,0.000000000,0.000000000,0.000000000,0.000000000,0.000000000,0.000000000,0.000000000,0.000000000,0.000000000,0.000000000,-0.004900402,0.000000000,0.000000000,0.000000000,0.000000000,0.000000000,0.000000000,0.000000000,0.000000000,0.000000000,0.000000000,0.000000000,0.000000000,0.000000000,0.000000000,0.000000000,0.000000000,0.055486719,0.000000000,0.000000000,0.000000000,-0.004900402,0.068646437,0.000000000,0.000000000,0.999997378,0.000000000,0.000000000,-0.002289766,0.087919458,-0.012929674,0.000000000,-0.517961564,-0.536938976,0.693800479,0.511079629
1539699415.317462,3.000000000,1539699415.278359175,0.049908420,0.000000000,0.000000000,0.000000000,0.000000000,0.000000000,0.000000000,0.000000000,0.000000000,0.000000000,0.000000000,-0.001065217,0.000000000,0.000000000,0.000000000,0.000000000,0.000000000,0.000000000,0.000000000,0.000000000,0.000000000,0.000000000,0.000000000,0.000000000,0.000000000,0.000000000,0.000000000,0.000000000,0.040210589,0.000000000,0.000000000,0.000000000,-0.001065217,0.031429242,0.000000000,0.000000000,0.999747614,0.000000000,0.000000000,0.022465705,0.146384984,-0.013824257,0.000000000,-0.300418864,-0.368390142,0.593188832,0.340741628
1539699415.731283,4.000000000,1539699415.679631710,0.030385682,0.000000000,0.000000000,0.000000000,0.000000000,0.000000000,0.000000000,0.000000000,0.000000000,0.000000000,0.000000000,-0.000635289,0.000000000,0.000000000,0.000000000,0.000000000,0.000000000,0.000000000,0.000000000,0.000000000,0.000000000,0.000000000,0.000000000,0.000000000,0.000000000,0.000000000,0.000000000,0.000000000,0.029238986,0.000000000,0.000000000,0.000000000,-0.000635289,0.015557392,0.000000000,0.000000000,0.996564716,0.000000000,0.000000000,0.082817669,0.218886770,-0.005990807,0.000000000,-0.129743018,-0.255449358,0.567516558,0.243467744
1539699416.115191,5.000000000,1539699416.080893278,0.017112352,0.000000000,0.000000000,0.000000000,0.000000000,0.000000000,0.000000000,0.000000000,0.000000000,0.000000000,0.000000000,0.001191430,0.000000000,0.000000000,0.000000000,0.000000000,0.000000000,0.000000000,0.000000000,0.000000000,0.000000000,0.000000000,0.000000000,0.000000000,0.000000000,0.000000000,0.000000000,0.000000000,0.020819049,0.000000000,0.000000000,0.000000000,0.001191430,0.008752391,0.000000000,0.000000000,0.988200783,0.000000000,0.000000000,0.153164008,0.278328949,0.010288487,0.000000000,0.016700571,-0.176819941,0.539957327,0.197396915
1539699416.499054,6.000000000,1539699416.482127428,0.012103199,0.000000000,0.000000000,0.000000000,0.000000000,0.000000000,0.000000000,0.000000000,0.000000000,0.000000000,0.000000000,0.001106596,0.000000000,0.000000000,0.000000000,0.000000000,0.000000000,0.000000000,0.000000000,0.000000000,0.000000000,0.000000000,0.000000000,0.000000000,0.000000000,0.000000000,0.000000000,0.000000000,0.015961628,0.000000000,0.000000000,0.000000000,0.001106596,0.006699172,0.000000000,0.000000000,0.974163396,0.000000000,0.000000000,0.225844367,0.334967400,0.033896866,0.000000000,0.114938319,-0.129800077,0.554996480,0.197593810
1539699416.892582,7.000000000,1539699416.883394480,0.008735148,0.000000000,0.000000000,0.000000000,0.000000000,0.000000000,0.000000000,0.000000000,0.000000000,0.000000000,0.000000000,0.000701958,0.000000000,0.000000000,0.000000000,0.000000000,0.000000000,0.000000000,0.000000000,0.000000000,0.000000000,0.000000000,0.000000000,0.000000000,0.000000000,0.000000000,0.000000000,0.000000000,0.012751223,0.000000000,0.000000000,0.000000000,0.000701958,0.004835231,0.000000000,0.000000000,0.954235415,0.000000000,0.000000000,0.299056469,0.387253591,0.067364127,0.000000000,0.200329563,-0.071707530,0.574177619,0.206435784
1539699417.295814,8.000000000,1539699417.285885811,0.007762496,0.000000000,0.000000000,0.000000000,0.000000000,0.000000000,0.000000000,0.000000000,0.000000000,0.000000000,0.000000000,0.000966878,0.000000000,0.000000000,0.000000000,0.000000000,0.000000000,0.000000000,0.000000000,0.000000000,0.000000000,0.000000000,0.000000000,0.000000000,0.000000000,0.000000000,0.000000000,0.000000000,0.011872306,0.000000000,0.000000000,0.000000000,0.000966878,0.004434867,0.000000000,0.000000000,0.929149144,0.000000000,0.000000000,0.369705109,0.432174041,0.102697235,0.000000000,0.255963989,-0.030492365,0.608384093,0.235886835
1539699417.749923,9.000000000,1539699417.687153816,0.006558619,0.000000000,0.000000000,0.000000000,0.000000000,0.000000000,0.000000000,0.000000000,0.000000000,0.000000000,0.000000000,0.000826914,0.000000000,0.000000000,0.000000000,0.000000000,0.000000000,0.000000000,0.000000000,0.000000000,0.000000000,0.000000000,0.000000000,0.000000000,0.000000000,0.000000000,0.000000000,0.000000000,0.011066326,0.000000000,0.000000000,0.000000000,0.000826914,0.004770094,0.000000000,0.000000000,0.898303453,0.000000000,0.000000000,0.439375587,0.474187596,0.146630174,0.000000000,0.312216996,0.008498438,0.636158196,0.284761910
1539699418.143446,10.000000000,1539699418.088486671,0.006091256,0.000000000,0.000000000,0.000000000,0.000000000,0.000000000,0.000000000,0.000000000,0.000000000,0.000000000,0.000000000,0.000749998,0.000000000,0.000000000,0.000000000,0.000000000,0.000000000,0.000000000,0.000000000,0.000000000,0.000000000,0.000000000,0.000000000,0.000000000,0.000000000,0.000000000,0.000000000,0.000000000,0.010166827,0.000000000,0.000000000,0.000000000,0.000749998,0.004079434,0.000000000,0.000000000,0.864309792,0.000000000,0.000000000,0.502959823,0.512090953,0.200899775,0.000000000,0.355997949,0.073158884,0.668183956,0.328640666
1539699418.496884,11.000000000,1539699418.489892721,0.005064951,0.000000000,0.000000000,0.000000000,0.000000000,0.000000000,0.000000000,0.000000000,0.000000000,0.000000000,0.000000000,0.000405715,0.000000000,0.000000000,0.000000000,0.000000000,0.000000000,0.000000000,0.000000000,0.000000000,0.000000000,0.000000000,0.000000000,0.000000000,0.000000000,0.000000000,0.000000000,0.000000000,0.010190487,0.000000000,0.000000000,0.000000000,0.000405715,0.004532282,0.000000000,0.000000000,0.830836923,0.000000000,0.000000000,0.556515954,0.546440122,0.263113004,0.000000000,0.404103186,0.128468561,0.688777057,0.397757447
1539699419.123236,12.000000000,1539699419.091015339,0.004129088,0.000000000,0.000000000,0.000000000,0.000000000,0.000000000,0.000000000,0.000000000,0.000000000,0.000000000,0.000000000,0.000598727,0.000000000,0.000000000,0.000000000,0.000000000,0.000000000,0.000000000,0.000000000,0.000000000,0.000000000,0.000000000,0.000000000,0.000000000,0.000000000,0.000000000,0.000000000,0.000000000,0.011834056,0.000000000,0.000000000,0.000000000,0.000598727,0.006287892,0.000000000,0.000000000,0.764324638,0.000000000,0.000000000,0.644831643,0.571406987,0.355439921,0.000000000,0.442891031,0.196847462,0.699922942,0.514032380
1539699419.507098,13.000000000,1539699419.492473841,0.003416534,0.000000000,0.000000000,0.000000000,0.000000000,0.000000000,0.000000000,0.000000000,0.000000000,0.000000000,0.000000000,0.000205028,0.000000000,0.000000000,0.000000000,0.000000000,0.000000000,0.000000000,0.000000000,0.000000000,0.000000000,0.000000000,0.000000000,0.000000000,0.000000000,0.000000000,0.000000000,0.000000000,0.011077489,0.000000000,0.000000000,0.000000000,0.000205028,0.005679702,0.000000000,0.000000000,0.719968724,0.000000000,0.000000000,0.694006511,0.573139320,0.418159216,0.000000000,0.456237078,0.267431624,0.690041562,0.568886808
1539699419.910660,14.000000000,1539699419.893621206,0.003215056,0.000000000,0.000000000,0.000000000,0.000000000,0.000000000,0.000000000,0.000000000,0.000000000,0.000000000,0.000000000,-0.000198902,0.000000000,0.000000000,0.000000000,0.000000000,0.000000000,0.000000000,0.000000000,0.000000000,0.000000000,0.000000000,0.000000000,0.000000000,0.000000000,0.000000000,0.000000000,0.000000000,0.010035552,0.000000000,0.000000000,0.000000000,-0.000198902,0.005093590,0.000000000,0.000000000,0.693588835,0.000000000,0.000000000,0.720371104,0.574524839,0.485531797,0.000000000,0.461121915,0.342793009,0.687927763,0.628270585
1539699420.324442,15.000000000,1539699420.294904709,0.003123673,0.000000000,0.000000000,0.000000000,0.000000000,0.000000000,0.000000000,0.000000000,0.000000000,0.000000000,0.000000000,-0.000366095,0.000000000,0.000000000,0.000000000,0.000000000,0.000000000,0.000000000,0.000000000,0.000000000,0.000000000,0.000000000,0.000000000,0.000000000,0.000000000,0.000000000,0.000000000,0.000000000,0.009415993,0.000000000,0.000000000,0.000000000,-0.000366095,0.004879402,0.000000000,0.000000000,0.660433612,0.000000000,0.000000000,0.750884441,0.566326863,0.549480087,0.000000000,0.454547211,0.409774647,0.678106515,0.689185527
1539699420.717818,16.000000000,1539699420.696149111,0.003094879,0.000000000,0.000000000,0.000000000,0.000000000,0.000000000,0.000000000,0.000000000,0.000000000,0.000000000,0.000000000,-0.000562222,0.000000000,0.000000000,0.000000000,0.000000000,0.000000000,0.000000000,0.000000000,0.000000000,0.000000000,0.000000000,0.000000000,0.000000000,0.000000000,0.000000000,0.000000000,0.000000000,0.008899994,0.000000000,0.000000000,0.000000000,-0.000562222,0.004185646,0.000000000,0.000000000,0.629867299,0.000000000,0.000000000,0.776702766,0.557851507,0.610934234,0.000000000,0.446588228,0.481541089,0.669114785,0.740327378
1539699421.131715,17.000000000,1539699421.097405910,0.003188542,0.000000000,0.000000000,0.000000000,0.000000000,0.000000000,0.000000000,0.000000000,0.000000000,0.000000000,0.000000000,-0.000718703,0.000000000,0.000000000,0.000000000,0.000000000,0.000000000,0.000000000,0.000000000,0.000000000,0.000000000,0.000000000,0.000000000,0.000000000,0.000000000,0.000000000,0.000000000,0.000000000,0.009293019,0.000000000,0.000000000,0.000000000,-0.000718703,0.004291113,0.000000000,0.000000000,0.576572960,0.000000000,0.000000000,0.817045667,0.538829959,0.670607877,0.000000000,0.425895599,0.539594700,0.651764320,0.801621054
1539699421.525563,18.000000000,1539699421.498627186,0.003056837,0.000000000,0.000000000,0.000000000,0.000000000,0.000000000,0.000000000,0.000000000,0.000000000,0.000000000,0.000000000,-0.001006902,0.000000000,0.000000000,0.000000000,0.000000000,0.000000000,0.000000000,0.000000000,0.000000000,0.000000000,0.000000000,0.000000000,0.000000000,0.000000000,0.000000000,0.000000000,0.000000000,0.010021923,0.000000000,0.000000000,0.000000000,-0.001006902,0.004147455,0.000000000,0.000000000,0.511824765,0.000000000,0.000000000,0.859089873,0.512910079,0.725500241,0.000000000,0.402332736,0.596698771,0.623487421,0.854301712
1539699421.928878,19.000000000,1539699421.899908304,0.003433032,0.000000000,0.000000000,0.000000000,0.000000000,0.000000000,0.000000000,0.000000000,0.000000000,0.000000000,0.000000000,-0.001176680,0.000000000,0.000000000,0.000000000,0.000000000,0.000000000,0.000000000,0.000000000,0.000000000,0.000000000,0.000000000,0.000000000,0.000000000,0.000000000,0.000000000,0.000000000,0.000000000,0.009585025,0.000000000,0.000000000,0.000000000,-0.001176680,0.003891916,0.000000000,0.000000000,0.449058339,0.000000000,0.000000000,0.893502439,0.476665415,0.776834308,0.000000000,0.359481250,0.652063865,0.593849581,0.901604750
1539699422.312237,20.000000000,1539699422.301420927,0.004022839,0.000000000,0.000000000,0.000000000,0.000000000,0.000000000,0.000000000,0.000000000,0.000000000,0.000000000,0.000000000,-0.001193932,0.000000000,0.000000000,0.000000000,0.000000000,0.000000000,0.000000000,0.000000000,0.000000000,0.000000000,0.000000000,0.000000000,0.000000000,0.000000000,0.000000000,0.000000000,0.000000000,0.009917112,0.000000000,0.000000000,0.000000000,-0.001193932,0.003473373,0.000000000,0.000000000,0.374216392,0.000000000,0.000000000,0.927341411,0.434109195,0.824416383,0.000000000,0.307257480,0.706545723,0.560960910,0.942287043
1539699422.715944,21.000000000,1539699422.702642202,0.004222983,0.000000000,0.000000000,0.000000000,0.000000000,0.000000000,0.000000000,0.000000000,0.000000000,0.000000000,0.000000000,-0.001459221,0.000000000,0.000000000,0.000000000,0.000000000,0.000000000,0.000000000,0.000000000,0.000000000,0.000000000,0.000000000,0.000000000,0.000000000,0.000000000,0.000000000,0.000000000,0.000000000,0.009689779,0.000000000,0.000000000,0.000000000,-0.001459221,0.003830432,0.000000000,0.000000000,0.299278371,0.000000000,0.000000000,0.954165843,0.384589473,0.867275727,0.000000000,0.254620505,0.743494755,0.514558441,0.991056700
1539699423.129699,22.000000000,1539699423.104202032,0.004789355,0.000000000,0.000000000,0.000000000,0.000000000,0.000000000,0.000000000,0.000000000,0.000000000,0.000000000,0.000000000,-0.001730166,0.000000000,0.000000000,0.000000000,0.000000000,0.000000000,0.000000000,0.000000000,0.000000000,0.000000000,0.000000000,0.000000000,0.000000000,0.000000000,0.000000000,0.000000000,0.000000000,0.009396625,0.000000000,0.000000000,0.000000000,-0.001730166,0.003525391,0.000000000,0.000000000,0.229187377,0.000000000,0.000000000,0.973382323,0.337164274,0.899129192,0.000000000,0.198753935,0.780379184,0.475574612,1.017879199
1539699423.543993,23.000000000,1539699423.505150080,0.005157288,0.000000000,0.000000000,0.000000000,0.000000000,0.000000000,0.000000000,0.000000000,0.000000000,0.000000000,0.000000000,-0.001712944,0.000000000,0.000000000,0.000000000,0.000000000,0.000000000,0.000000000,0.000000000,0.000000000,0.000000000,0.000000000,0.000000000,0.000000000,0.000000000,0.000000000,0.000000000,0.000000000,0.008424868,0.000000000,0.000000000,0.000000000,-0.001712944,0.003236160,0.000000000,0.000000000,0.180924795,0.000000000,0.000000000,0.983496934,0.280579692,0.926250172,0.000000000,0.136951166,0.812475661,0.424208218,1.040024682
1539699423.908279,24.000000000,1539699423.907854319,0.005011519,0.000000000,0.000000000,0.000000000,0.000000000,0.000000000,0.000000000,0.000000000,0.000000000,0.000000000,0.000000000,-0.001518459,0.000000000,0.000000000,0.000000000,0.000000000,0.000000000,0.000000000,0.000000000,0.000000000,0.000000000,0.000000000,0.000000000,0.000000000,0.000000000,0.000000000,0.000000000,0.000000000,0.009927509,0.000000000,0.000000000,0.000000000,-0.001518459,0.002759574,0.000000000,0.000000000,0.127801516,0.000000000,0.000000000,0.991799764,0.225799790,0.945514985,0.000000000,0.084215628,0.840451686,0.367383952,1.050578284
1539699424.343618,25.000000000,1539699424.308944702,0.005492640,0.000000000,0.000000000,0.000000000,0.000000000,0.000000000,0.000000000,0.000000000,0.000000000,0.000000000,0.000000000,-0.001272557,0.000000000,0.000000000,0.000000000,0.000000000,0.000000000,0.000000000,0.000000000,0.000000000,0.000000000,0.000000000,0.000000000,0.000000000,0.000000000,0.000000000,0.000000000,0.000000000,0.010328690,0.000000000,0.000000000,0.000000000,-0.001272557,0.002506658,0.000000000,0.000000000,0.075800061,0.000000000,0.000000000,0.997123037,0.162403373,0.962628749,0.000000000,0.014178677,0.862495680,0.310628069,1.062761817
1539699424.717117,26.000000000,1539699424.710160017,0.005811026,0.000000000,0.000000000,0.000000000,0.000000000,0.000000000,0.000000000,0.000000000,0.000000000,0.000000000,0.000000000,-0.001061763,0.000000000,0.000000000,0.000000000,0.000000000,0.000000000,0.000000000,0.000000000,0.000000000,0.000000000,0.000000000,0.000000000,0.000000000,0.000000000,0.000000000,0.000000000,0.000000000,0.009788088,0.000000000,0.000000000,0.000000000,-0.001061763,0.002433115,0.000000000,0.000000000,0.036248111,0.000000000,0.000000000,0.999342821,0.094074402,0.972167465,0.000000000,-0.058385776,0.873514232,0.246534579,1.070820699
1539699425.111414,27.000000000,1539699425.111465931,0.005798828,0.000000000,0.000000000,0.000000000,0.000000000,0.000000000,0.000000000,0.000000000,0.000000000,0.000000000,0.000000000,-0.000779577,0.000000000,0.000000000,0.000000000,0.000000000,0.000000000,0.000000000,0.000000000,0.000000000,0.000000000,0.000000000,0.000000000,0.000000000,0.000000000,0.000000000,0.000000000,0.000000000,0.009212450,0.000000000,0.000000000,0.000000000,-0.000779577,0.002439314,0.000000000,0.000000000,0.000581465,0.000000000,0.000000000,0.999999831,0.022687969,0.976816508,0.000000000,-0.129612101,0.878037686,0.174988040,1.075595329
1539699425.525145,28.000000000,1539699425.512702227,0.005747758,0.000000000,0.000000000,0.000000000,0.000000000,0.000000000,0.000000000,0.000000000,0.000000000,0.000000000,0.000000000,-0.000684650,0.000000000,0.000000000,0.000000000,0.000000000,0.000000000,0.000000000,0.000000000,0.000000000,0.000000000,0.000000000,0.000000000,0.000000000,0.000000000,0.000000000,0.000000000,0.000000000,0.009379019,0.000000000,0.000000000,0.000000000,-0.000684650,0.002531323,0.000000000,0.000000000,0.060270311,0.000000000,0.000000000,-0.998182092,-0.041568748,0.975965772,0.000000000,-0.193196689,0.875341262,0.110059193,1.076590283
1539699425.939345,29.000000000,1539699425.913881779,0.007118569,0.000000000,0.000000000,0.000000000,0.000000000,0.000000000,0.000000000,0.000000000,0.000000000,0.000000000,0.000000000,-0.000245337,0.000000000,0.000000000,0.000000000,0.000000000,0.000000000,0.000000000,0.000000000,0.000000000,0.000000000,0.000000000,0.000000000,0.000000000,0.000000000,0.000000000,0.000000000,0.000000000,0.011217966,0.000000000,0.000000000,0.000000000,-0.000245337,0.002768281,0.000000000,0.000000000,0.147128920,0.000000000,0.000000000,-0.989117324,-0.110505353,0.961105149,0.000000000,-0.279248573,0.855876233,0.058237867,1.066334064
1539699426.353505,30.000000000,1539699426.315167904,0.008083098,0.000000000,0.000000000,0.000000000,0.000000000,0.000000000,0.000000000,0.000000000,0.000000000,0.000000000,0.000000000,0.000555507,0.000000000,0.000000000,0.000000000,0.000000000,0.000000000,0.000000000,0.000000000,0.000000000,0.000000000,0.000000000,0.000000000,0.000000000,0.000000000,0.000000000,0.000000000,0.000000000,0.012117037,0.000000000,0.000000000,0.000000000,0.000555507,0.003201588,0.000000000,0.000000000,0.239097854,0.000000000,0.000000000,-0.970995477,-0.160548709,0.940206993,0.000000000,-0.340360810,0.827041837,0.019263393,1.053372149
1539699426.727943,31.000000000,1539699426.716463804,0.008273765,0.000000000,0.000000000,0.000000000,0.000000000,0.000000000,0.000000000,0.000000000,0.000000000,0.000000000,0.000000000,0.001426724,0.000000000,0.000000000,0.000000000,0.000000000,0.000000000,0.000000000,0.000000000,0.000000000,0.000000000,0.000000000,0.000000000,0.000000000,0.000000000,0.000000000,0.000000000,0.000000000,0.012865153,0.000000000,0.000000000,0.000000000,0.001426724,0.003830612,0.000000000,0.000000000,0.345928769,0.000000000,0.000000000,-0.938260777,-0.201744771,0.915923849,0.000000000,-0.383665248,0.792139972,-0.019824294,1.039707725
1539699427.162777,32.000000000,1539699427.117645025,0.008066483,0.000000000,0.000000000,0.000000000,0.000000000,0.000000000,0.000000000,0.000000000,0.000000000,0.000000000,0.000000000,0.002526099,0.000000000,0.000000000,0.000000000,0.000000000,0.000000000,0.000000000,0.000000000,0.000000000,0.000000000,0.000000000,0.000000000,0.000000000,0.000000000,0.000000000,0.000000000,0.000000000,0.015117250,0.000000000,0.000000000,0.000000000,0.002526099,0.005207303,0.000000000,0.000000000,0.446869734,0.000000000,0.000000000,-0.894599039,-0.239592589,0.878815511,0.000000000,-0.419219794,0.734492226,-0.059965384,1.023138796
1539699427.537092,33.000000000,1539699427.518976927,0.007416837,0.000000000,0.000000000,0.000000000,0.000000000,0.000000000,0.000000000,0.000000000,0.000000000,0.000000000,0.000000000,0.002682842,0.000000000,0.000000000,0.000000000,0.000000000,0.000000000,0.000000000,0.000000000,0.000000000,0.000000000,0.000000000,0.000000000,0.000000000,0.000000000,0.000000000,0.000000000,0.000000000,0.016219816,0.000000000,0.000000000,0.000000000,0.002682842,0.005497743,0.000000000,0.000000000,0.544264239,0.000000000,0.000000000,-0.838913844,-0.271345539,0.830795969,0.000000000,-0.443587664,0.682502438,-0.099103414,0.979089500
1539699427.920857,34.000000000,1539699427.920128584,0.006411417,0.000000000,0.000000000,0.000000000,0.000000000,0.000000000,0.000000000,0.000000000,0.000000000,0.000000000,0.000000000,0.002218000,0.000000000,0.000000000,0.000000000,0.000000000,0.000000000,0.000000000,0.000000000,0.000000000,0.000000000,0.000000000,0.000000000,0.000000000,0.000000000,0.000000000,0.000000000,0.000000000,0.014717632,0.000000000,0.000000000,0.000000000,0.002218000,0.006685557,0.000000000,0.000000000,0.627692685,0.000000000,0.000000000,-0.778461234,-0.289268898,0.781970621,0.000000000,-0.449411551,0.618440105,-0.129126246,0.945501137
1539699428.556503,35.000000000,1539699428.522703409,0.005734880,0.000000000,0.000000000,0.000000000,0.000000000,0.000000000,0.000000000,0.000000000,0.000000000,0.000000000,0.000000000,0.001953756,0.000000000,0.000000000,0.000000000,0.000000000,0.000000000,0.000000000,0.000000000,0.000000000,0.000000000,0.000000000,0.000000000,0.000000000,0.000000000,0.000000000,0.000000000,0.000000000,0.018583856,0.000000000,0.000000000,0.000000000,0.001953756,0.010828796,0.000000000,0.000000000,0.725631154,0.000000000,0.000000000,-0.688083881,-0.299269211,0.696507311,0.000000000,-0.450727188,0.488384309,-0.147811234,0.904630313
1539699428.920666,36.000000000,1539699428.923775673,0.004939702,0.000000000,0.000000000,0.000000000,0.000000000,0.000000000,0.000000000,0.000000000,0.000000000,0.000000000,0.000000000,0.000762810,0.000000000,0.000000000,0.000000000,0.000000000,0.000000000,0.000000000,0.000000000,0.000000000,0.000000000,0.000000000,0.000000000,0.000000000,0.000000000,0.000000000,0.000000000,0.000000000,0.018442938,0.000000000,0.000000000,0.000000000,0.000762810,0.008394705,0.000000000,0.000000000,0.779348241,0.000000000,0.000000000,-0.626591031,-0.286341653,0.632360855,0.000000000,-0.426907674,0.449115611,-0.145775632,0.815606098
1539699429.335043,37.000000000,1539699429.325027704,0.004931511,0.000000000,0.000000000,0.000000000,0.000000000,0.000000000,0.000000000,0.000000000,0.000000000,0.000000000,0.000000000,-0.000155521,0.000000000,0.000000000,0.000000000,0.000000000,0.000000000,0.000000000,0.000000000,0.000000000,0.000000000,0.000000000,0.000000000,0.000000000,0.000000000,0.000000000,0.000000000,0.000000000,0.016767584,0.000000000,0.000000000,0.000000000,-0.000155521,0.006672511,0.000000000,0.000000000,0.801692386,0.000000000,0.000000000,-0.597736830,-0.264145756,0.567993149,0.000000000,-0.404595187,0.404622274,-0.123696325,0.731364025
1539699429.728773,38.000000000,1539699429.726556301,0.003888526,0.000000000,0.000000000,0.000000000,0.000000000,0.000000000,0.000000000,0.000000000,0.000000000,0.000000000,0.000000000,-0.000548665,0.000000000,0.000000000,0.000000000,0.000000000,0.000000000,0.000000000,0.000000000,0.000000000,0.000000000,0.000000000,0.000000000,0.000000000,0.000000000,0.000000000,0.000000000,0.000000000,0.016375260,0.000000000,0.000000000,0.000000000,-0.000548665,0.005841133,0.000000000,0.000000000,0.794914065,0.000000000,0.000000000,-0.606722036,-0.243014484,0.506441773,0.000000000,-0.367730586,0.353587162,-0.118298383,0.659296385
1539699430.153158,39.000000000,1539699430.127509832,0.003907513,0.000000000,0.000000000,0.000000000,0.000000000,0.000000000,0.000000000,0.000000000,0.000000000,0.000000000,0.000000000,-0.000815784,0.000000000,0.000000000,0.000000000,0.000000000,0.000000000,0.000000000,0.000000000,0.000000000,0.000000000,0.000000000,0.000000000,0.000000000,0.000000000,0.000000000,0.000000000,0.000000000,0.013951234,0.000000000,0.000000000,0.000000000,-0.000815784,0.004442969,0.000000000,0.000000000,0.783156373,0.000000000,0.000000000,-0.621824811,-0.227094727,0.449021169,0.000000000,-0.352114930,0.315709973,-0.102074524,0.582332365
1539699430.560710,40.000000000,1539699430.528752327,0.003828552,0.000000000,0.000000000,0.000000000,0.000000000,0.000000000,0.000000000,0.000000000,0.000000000,0.000000000,0.000000000,-0.000645149,0.000000000,0.000000000,0.000000000,0.000000000,0.000000000,0.000000000,0.000000000,0.000000000,0.000000000,0.000000000,0.000000000,0.000000000,0.000000000,0.000000000,0.000000000,0.000000000,0.013178923,0.000000000,0.000000000,0.000000000,-0.000645149,0.003925241,0.000000000,0.000000000,0.772124757,0.000000000,0.000000000,-0.635470975,-0.213386048,0.386685717,0.000000000,-0.337136639,0.261382229,-0.089635457,0.511989206
1539699430.934470,41.000000000,1539699430.930057049,0.004033291,0.000000000,0.000000000,0.000000000,0.000000000,0.000000000,0.000000000,0.000000000,0.000000000,0.000000000,0.000000000,-0.000843589,0.000000000,0.000000000,0.000000000,0.000000000,0.000000000,0.000000000,0.000000000,0.000000000,0.000000000,0.000000000,0.000000000,0.000000000,0.000000000,0.000000000,0.000000000,0.000000000,0.012261345,0.000000000,0.000000000,0.000000000,-0.000843589,0.003320925,0.000000000,0.000000000,0.759898441,0.000000000,0.000000000,-0.650041814,-0.203777408,0.326107106,0.000000000,-0.330793796,0.210852169,-0.076761021,0.441362042
1539699431.328490,42.000000000,1539699431.331272364,0.004098753,0.000000000,0.000000000,0.000000000,0.000000000,0.000000000,0.000000000,0.000000000,0.000000000,0.000000000,0.000000000,-0.001301520,0.000000000,0.000000000,0.000000000,0.000000000,0.000000000,0.000000000,0.000000000,0.000000000,0.000000000,0.000000000,0.000000000,0.000000000,0.000000000,0.000000000,0.000000000,0.000000000,0.011407214,0.000000000,0.000000000,0.000000000,-0.001301520,0.003608921,0.000000000,0.000000000,0.749921895,0.000000000,0.000000000,-0.661526380,-0.196602597,0.259942841,0.000000000,-0.324645608,0.139794250,-0.068559586,0.380091431
1539699431.743186,43.000000000,1539699431.732528210,0.004375865,0.000000000,0.000000000,0.000000000,0.000000000,0.000000000,0.000000000,0.000000000,0.000000000,0.000000000,0.000000000,-0.001436470,0.000000000,0.000000000,0.000000000,0.000000000,0.000000000,0.000000000,0.000000000,0.000000000,0.000000000,0.000000000,0.000000000,0.000000000,0.000000000,0.000000000,0.000000000,0.000000000,0.010488666,0.000000000,0.000000000,0.000000000,-0.001436470,0.004051306,0.000000000,0.000000000,0.737676736,0.000000000,0.000000000,-0.675154081,-0.189321831,0.185715999,0.000000000,-0.321622477,0.058416254,-0.057021185,0.313015745
1539699432.137437,44.000000000,1539699432.133783340,0.004277782,0.000000000,0.000000000,0.000000000,0.000000000,0.000000000,0.000000000,0.000000000,0.000000000,0.000000000,0.000000000,-0.001324949,0.000000000,0.000000000,0.000000000,0.000000000,0.000000000,0.000000000,0.000000000,0.000000000,0.000000000,0.000000000,0.000000000,0.000000000,0.000000000,0.000000000,0.000000000,0.000000000,0.008586864,0.000000000,0.000000000,0.000000000,-0.001324949,0.003934019,0.000000000,0.000000000,0.728131741,0.000000000,0.000000000,-0.685437209,-0.186412705,0.124912168,0.000000000,-0.317222220,-0.000531350,-0.055603190,0.250355687
1539699432.531899,45.000000000,1539699432.535016537,0.003824207,0.000000000,0.000000000,0.000000000,0.000000000,0.000000000,0.000000000,0.000000000,0.000000000,0.000000000,0.000000000,-0.000925083,0.000000000,0.000000000,0.000000000,0.000000000,0.000000000,0.000000000,0.000000000,0.000000000,0.000000000,0.000000000,0.000000000,0.000000000,0.000000000,0.000000000,0.000000000,0.000000000,0.008422561,0.000000000,0.000000000,0.000000000,-0.000925083,0.004042789,0.000000000,0.000000000,0.713431704,0.000000000,0.000000000,-0.700724771,-0.187596253,0.056759736,0.000000000,-0.311276602,-0.070406130,-0.063915905,0.183925602
1539699432.945702,46.000000000,1539699432.936338663,0.003327506,0.000000000,0.000000000,0.000000000,0.000000000,0.000000000,0.000000000,0.000000000,0.000000000,0.000000000,0.000000000,-0.000691816,0.000000000,0.000000000,0.000000000,0.000000000,0.000000000,0.000000000,0.000000000,0.000000000,0.000000000,0.000000000,0.000000000,0.000000000,0.000000000,0.000000000,0.000000000,0.000000000,0.007156650,0.000000000,0.000000000,0.000000000,-0.000691816,0.003885644,0.000000000,0.000000000,0.700148446,0.000000000,0.000000000,-0.713997306,-0.188443999,-0.012295418,0.000000000,-0.303813083,-0.136965285,-0.073074915,0.112374449
1539699433.354051,47.000000000,1539699433.337653399,0.003249972,0.000000000,0.000000000,0.000000000,0.000000000,0.000000000,0.000000000,0.000000000,0.000000000,0.000000000,0.000000000,-0.000262677,0.000000000,0.000000000,0.000000000,0.000000000,0.000000000,0.000000000,0.000000000,0.000000000,0.000000000,0.000000000,0.000000000,0.000000000,0.000000000,0.000000000,0.000000000,0.000000000,0.007166748,0.000000000,0.000000000,0.000000000,-0.000262677,0.003791300,0.000000000,0.000000000,0.686446474,0.000000000,0.000000000,-0.727180334,-0.191203047,-0.075414897,0.000000000,-0.305220106,-0.198561964,-0.077185988,0.047732170
1539699433.779137,48.000000000,1539699433.740033865,0.003322488,0.000000000,0.000000000,0.000000000,0.000000000,0.000000000,0.000000000,0.000000000,0.000000000,0.000000000,0.000000000,0.000080211,0.000000000,0.000000000,0.000000000,0.000000000,0.000000000,0.000000000,0.000000000,0.000000000,0.000000000,0.000000000,0.000000000,0.000000000,0.000000000,0.000000000,0.000000000,0.000000000,0.007865713,0.000000000,0.000000000,0.000000000,0.000080211,0.004156226,0.000000000,0.000000000,0.673805500,0.000000000,0.000000000,-0.738908755,-0.196113471,-0.141956424,0.000000000,-0.311395519,-0.270894028,-0.080831423,-0.013018820
1539699434.173133,49.000000000,1539699434.141269207,0.003512028,0.000000000,0.000000000,0.000000000,0.000000000,0.000000000,0.000000000,0.000000000,0.000000000,0.000000000,0.000000000,0.000093973,0.000000000,0.000000000,0.000000000,0.000000000,0.000000000,0.000000000,0.000000000,0.000000000,0.000000000,0.000000000,0.000000000,0.000000000,0.000000000,0.000000000,0.000000000,0.000000000,0.007391911,0.000000000,0.000000000,0.000000000,0.000093973,0.004039162,0.000000000,0.000000000,0.637349474,0.000000000,0.000000000,-0.770574881,-0.210305811,-0.206730692,0.000000000,-0.328830537,-0.333839495,-0.091781084,-0.079621889
1539699434.557569,50.000000000,1539699434.542498589,0.003617884,0.000000000,0.000000000,0.000000000,0.000000000,0.000000000,0.000000000,0.000000000,0.000000000,0.000000000,0.000000000,0.000417113,0.000000000,0.000000000,0.000000000,0.000000000,0.000000000,0.000000000,0.000000000,0.000000000,0.000000000,0.000000000,0.000000000,0.000000000,0.000000000,0.000000000,0.000000000,0.000000000,0.007146999,0.000000000,0.000000000,0.000000000,0.000417113,0.004782161,0.000000000,0.000000000,0.575858259,0.000000000,0.000000000,-0.817549550,-0.224310874,-0.266756175,0.000000000,-0.344608574,-0.405062510,-0.104013174,-0.128449840
1539699434.961285,51.000000000,1539699434.943751574,0.003638773,0.000000000,0.000000000,0.000000000,0.000000000,0.000000000,0.000000000,0.000000000,0.000000000,0.000000000,0.000000000,0.001044272,0.000000000,0.000000000,0.000000000,0.000000000,0.000000000,0.000000000,0.000000000,0.000000000,0.000000000,0.000000000,0.000000000,0.000000000,0.000000000,0.000000000,0.000000000,0.000000000,0.007524691,0.000000000,0.000000000,0.000000000,0.001044272,0.004544243,0.000000000,0.000000000,0.502922325,0.000000000,0.000000000,-0.864331612,-0.254143548,-0.326674579,0.000000000,-0.374788037,-0.461496573,-0.133499059,-0.191852585
1539699435.355065,52.000000000,1539699435.345020771,0.003563013,0.000000000,0.000000000,0.000000000,0.000000000,0.000000000,0.000000000,0.000000000,0.000000000,0.000000000,0.000000000,0.001131899,0.000000000,0.000000000,0.000000000,0.000000000,0.000000000,0.000000000,0.000000000,0.000000000,0.000000000,0.000000000,0.000000000,0.000000000,0.000000000,0.000000000,0.000000000,0.000000000,0.008898167,0.000000000,0.000000000,0.000000000,0.001131899,0.004706643,0.000000000,0.000000000,0.418506912,0.000000000,0.000000000,-0.908213612,-0.291621007,-0.374182256,0.000000000,-0.411002964,-0.511392207,-0.172239050,-0.236972306
1539699435.749746,53.000000000,1539699435.746249437,0.004274239,0.000000000,0.000000000,0.000000000,0.000000000,0.000000000,0.000000000,0.000000000,0.000000000,0.000000000,0.000000000,0.001080803,0.000000000,0.000000000,0.000000000,0.000000000,0.000000000,0.000000000,0.000000000,0.000000000,0.000000000,0.000000000,0.000000000,0.000000000,0.000000000,0.000000000,0.000000000,0.000000000,0.010424447,0.000000000,0.000000000,0.000000000,0.001080803,0.004067839,0.000000000,0.000000000,0.338633803,0.000000000,0.000000000,-0.940918247,-0.336473001,-0.416334698,0.000000000,-0.467228331,-0.543893929,-0.205717671,-0.288775467
1539699436.386358,54.000000000,1539699436.348743916,0.006957923,0.000000000,0.000000000,0.000000000,0.000000000,0.000000000,0.000000000,0.000000000,0.000000000,0.000000000,0.000000000,0.002050960,0.000000000,0.000000000,0.000000000,0.000000000,0.000000000,0.000000000,0.000000000,0.000000000,0.000000000,0.000000000,0.000000000,0.000000000,0.000000000,0.000000000,0.000000000,0.000000000,0.014655086,0.000000000,0.000000000,0.000000000,0.002050960,0.004327139,0.000000000,0.000000000,0.202802852,0.000000000,0.000000000,-0.979219589,-0.415163305,-0.460404005,0.000000000,-0.581991640,-0.591965983,-0.248334970,-0.328842026
1539699436.760359,55.000000000,1539699436.750048161,0.008182802,0.000000000,0.000000000,0.000000000,0.000000000,0.000000000,0.000000000,0.000000000,0.000000000,0.000000000,0.000000000,0.001852848,0.000000000,0.000000000,0.000000000,0.000000000,0.000000000,0.000000000,0.000000000,0.000000000,0.000000000,0.000000000,0.000000000,0.000000000,0.000000000,0.000000000,0.000000000,0.000000000,0.015445969,0.000000000,0.000000000,0.000000000,0.001852848,0.003851624,0.000000000,0.000000000,0.093890321,0.000000000,0.000000000,-0.995582547,-0.469381443,-0.475747949,0.000000000,-0.650299131,-0.599870864,-0.288463755,-0.351625035
1539699437.184437,56.000000000,1539699437.151219606,0.009960862,0.000000000,0.000000000,0.000000000,0.000000000,0.000000000,0.000000000,0.000000000,0.000000000,0.000000000,0.000000000,0.001451454,0.000000000,0.000000000,0.000000000,0.000000000,0.000000000,0.000000000,0.000000000,0.000000000,0.000000000,0.000000000,0.000000000,0.000000000,0.000000000,0.000000000,0.000000000,0.000000000,0.015241643,0.000000000,0.000000000,0.000000000,0.001451454,0.003510263,0.000000000,0.000000000,0.013999196,0.000000000,0.000000000,0.999902006,-0.518337315,-0.480431492,0.000000000,-0.717945548,-0.598926429,-0.318729083,-0.361936555
1539699437.588965,57.000000000,1539699437.552372217,0.009495387,0.000000000,0.000000000,0.000000000,0.000000000,0.000000000,0.000000000,0.000000000,0.000000000,0.000000000,0.000000000,0.000317069,0.000000000,0.000000000,0.000000000,0.000000000,0.000000000,0.000000000,0.000000000,0.000000000,0.000000000,0.000000000,0.000000000,0.000000000,0.000000000,0.000000000,0.000000000,0.000000000,0.015659310,0.000000000,0.000000000,0.000000000,0.000317069,0.003392055,0.000000000,0.000000000,0.113986252,0.000000000,0.000000000,0.993482327,-0.574274461,-0.472200924,0.000000000,-0.769163016,-0.588683629,-0.379385906,-0.355718219
1539699437.992359,58.000000000,1539699437.953647375,0.008326885,0.000000000,0.000000000,0.000000000,0.000000000,0.000000000,0.000000000,0.000000000,0.000000000,0.000000000,0.000000000,-0.000676620,0.000000000,0.000000000,0.000000000,0.000000000,0.000000000,0.000000000,0.000000000,0.000000000,0.000000000,0.000000000,0.000000000,0.000000000,0.000000000,0.000000000,0.000000000,0.000000000,0.014682751,0.000000000,0.000000000,0.000000000,-0.000676620,0.003704320,0.000000000,0.000000000,0.175132052,0.000000000,0.000000000,0.984544953,-0.639633160,-0.448017524,0.000000000,-0.822136693,-0.569743767,-0.457129626,-0.326291281
1539699438.406464,59.000000000,1539699438.355051517,0.008263390,0.000000000,0.000000000,0.000000000,0.000000000,0.000000000,0.000000000,0.000000000,0.000000000,0.000000000,0.000000000,-0.001181428,0.000000000,0.000000000,0.000000000,0.000000000,0.000000000,0.000000000,0.000000000,0.000000000,0.000000000,0.000000000,0.000000000,0.000000000,0.000000000,0.000000000,0.000000000,0.000000000,0.014193069,0.000000000,0.000000000,0.000000000,-0.001181428,0.003817861,0.000000000,0.000000000,0.214831862,0.000000000,0.000000000,0.976651049,-0.704101209,-0.420063446,0.000000000,-0.885907591,-0.543641127,-0.522294826,-0.296485765
1539699438.770319,60.000000000,1539699438.756129742,0.007275950,0.000000000,0.000000000,0.000000000,0.000000000,0.000000000,0.000000000,0.000000000,0.000000000,0.000000000,0.000000000,-0.001432455,0.000000000,0.000000000,0.000000000,0.000000000,0.000000000,0.000000000,0.000000000,0.000000000,0.000000000,0.000000000,0.000000000,0.000000000,0.000000000,0.000000000,0.000000000,0.000000000,0.014173762,0.000000000,0.000000000,0.000000000,-0.001432455,0.003791455,0.000000000,0.000000000,0.282214293,0.000000000,0.000000000,0.959351392,-0.768442959,-0.388299824,0.000000000,-0.939041320,-0.511449407,-0.597844598,-0.265150242
1539699439.174762,61.000000000,1539699439.158644438,0.006854621,0.000000000,0.000000000,0.000000000,0.000000000,0.000000000,0.000000000,0.000000000,0.000000000,0.000000000,0.000000000,-0.001509288,0.000000000,0.000000000,0.000000000,0.000000000,0.000000000,0.000000000,0.000000000,0.000000000,0.000000000,0.000000000,0.000000000,0.000000000,0.000000000,0.000000000,0.000000000,0.000000000,0.013280593,0.000000000,0.000000000,0.000000000,-0.001509288,0.004148906,0.000000000,0.000000000,0.358360768,0.000000000,0.000000000,0.933583183,-0.820675586,-0.345988147,0.000000000,-0.986260863,-0.474812144,-0.655090310,-0.217164151
1539699439.568985,62.000000000,1539699439.559879065,0.007716558,0.000000000,0.000000000,0.000000000,0.000000000,0.000000000,0.000000000,0.000000000,0.000000000,0.000000000,0.000000000,-0.002815440,0.000000000,0.000000000,0.000000000,0.000000000,0.000000000,0.000000000,0.000000000,0.000000000,0.000000000,0.000000000,0.000000000,0.000000000,0.000000000,0.000000000,0.000000000,0.000000000,0.013478645,0.000000000,0.000000000,0.000000000,-0.002815440,0.005855228,0.000000000,0.000000000,0.452033672,0.000000000,0.000000000,0.892000874,-0.861165346,-0.307124215,0.000000000,-1.036853234,-0.460163135,-0.685477459,-0.154085294
1539699439.962909,63.000000000,1539699439.961200953,0.006978234,0.000000000,0.000000000,0.000000000,0.000000000,0.000000000,0.000000000,0.000000000,0.000000000,0.000000000,0.000000000,-0.002438406,0.000000000,0.000000000,0.000000000,0.000000000,0.000000000,0.000000000,0.000000000,0.000000000,0.000000000,0.000000000,0.000000000,0.000000000,0.000000000,0.000000000,0.000000000,0.000000000,0.013787072,0.000000000,0.000000000,0.000000000,-0.002438406,0.005916612,0.000000000,0.000000000,0.548397992,0.000000000,0.000000000,0.836217461,-0.891884449,-0.255221626,0.000000000,-1.058956097,-0.409060665,-0.724812801,-0.101382587
1539699440.397034,64.000000000,1539699440.362402201,0.006671205,0.000000000,0.000000000,0.000000000,0.000000000,0.000000000,0.000000000,0.000000000,0.000000000,0.000000000,0.000000000,-0.002485665,0.000000000,0.000000000,0.000000000,0.000000000,0.000000000,0.000000000,0.000000000,0.000000000,0.000000000,0.000000000,0.000000000,0.000000000,0.000000000,0.000000000,0.000000000,0.000000000,0.016010351,0.000000000,0.000000000,0.000000000,-0.002485665,0.007788804,0.000000000,0.000000000,0.661231899,0.000000000,0.000000000,0.750181562,-0.903798048,-0.203083085,0.000000000,-1.067152938,-0.379591482,-0.740443158,-0.026574688
1539699440.801150,65.000000000,1539699440.766192675,0.005490811,0.000000000,0.000000000,0.000000000,0.000000000,0.000000000,0.000000000,0.000000000,0.000000000,0.000000000,0.000000000,-0.000795820,0.000000000,0.000000000,0.000000000,0.000000000,0.000000000,0.000000000,0.000000000,0.000000000,0.000000000,0.000000000,0.000000000,0.000000000,0.000000000,0.000000000,0.000000000,0.000000000,0.023037587,0.000000000,0.000000000,0.000000000,-0.000795820,0.011585970,0.000000000,0.000000000,0.799208468,0.000000000,0.000000000,0.601053929,-0.905743372,-0.157765638,0.000000000,-1.053943380,-0.373041926,-0.757543364,0.057510649
1539699441.376993,66.000000000,1539699441.365990400,0.008972505,0.000000000,0.000000000,0.000000000,0.000000000,0.000000000,0.000000000,0.000000000,0.000000000,0.000000000,0.000000000,0.004446062,0.000000000,0.000000000,0.000000000,0.000000000,0.000000000,0.000000000,0.000000000,0.000000000,0.000000000,0.000000000,0.000000000,0.000000000,0.000000000,0.000000000,0.000000000,0.000000000,0.043196774,0.000000000,0.000000000,0.000000000,0.004446062,0.015966254,0.000000000,0.000000000,0.944388759,0.000000000,0.000000000,0.328831068,-0.888000860,-0.122664615,0.000000000,-1.077447481,-0.375379905,-0.698554240,0.130050675
1539699441.790839,67.000000000,1539699441.767276049,0.012286160,0.000000000,0.000000000,0.000000000,0.000000000,0.000000000,0.000000000,0.000000000,0.000000000,0.000000000,0.000000000,0.004601845,0.000000000,0.000000000,0.000000000,0.000000000,0.000000000,0.000000000,0.000000000,0.000000000,0.000000000,0.000000000,0.000000000,0.000000000,0.000000000,0.000000000,0.000000000,0.000000000,0.044780954,0.000000000,0.000000000,0.000000000,0.004601845,0.011619785,0.000000000,0.000000000,0.991178699,0.000000000,0.000000000,0.132532213,-0.863411832,-0.112143543,0.000000000,-1.085097734,-0.327733757,-0.641725930,0.103446671
1539699442.184894,68.000000000,1539699442.168519735,0.013100581,0.000000000,0.000000000,0.000000000,0.000000000,0.000000000,0.000000000,0.000000000,0.000000000,0.000000000,0.000000000,0.003043033,0.000000000,0.000000000,0.000000000,0.000000000,0.000000000,0.000000000,0.000000000,0.000000000,0.000000000,0.000000000,0.000000000,0.000000000,0.000000000,0.000000000,0.000000000,0.000000000,0.044103544,0.000000000,0.000000000,0.000000000,0.003043033,0.008668946,0.000000000,0.000000000,0.999536647,0.000000000,0.000000000,-0.030438335,-0.821569877,-0.105993039,0.000000000,-1.050485418,-0.292207387,-0.592654336,0.080221310
1539699442.608667,69.000000000,1539699442.569869995,0.013384526,0.000000000,0.000000000,0.000000000,0.000000000,0.000000000,0.000000000,0.000000000,0.000000000,0.000000000,0.000000000,0.000921181,0.000000000,0.000000000,0.000000000,0.000000000,0.000000000,0.000000000,0.000000000,0.000000000,0.000000000,0.000000000,0.000000000,0.000000000,0.000000000,0.000000000,0.000000000,0.000000000,0.040083801,0.000000000,0.000000000,0.000000000,0.000921181,0.006494588,0.000000000,0.000000000,0.982946804,0.000000000,0.000000000,-0.183890133,-0.784402275,-0.112218037,0.000000000,-1.015785300,-0.273396047,-0.553019250,0.048959973
1539699443.022253,70.000000000,1539699442.971123219,0.012353980,0.000000000,0.000000000,0.000000000,0.000000000,0.000000000,0.000000000,0.000000000,0.000000000,0.000000000,0.000000000,-0.001217165,0.000000000,0.000000000,0.000000000,0.000000000,0.000000000,0.000000000,0.000000000,0.000000000,0.000000000,0.000000000,0.000000000,0.000000000,0.000000000,0.000000000,0.000000000,0.000000000,0.036251641,0.000000000,0.000000000,0.000000000,-0.001217165,0.006587822,0.000000000,0.000000000,0.947401590,0.000000000,0.000000000,-0.320047226,-0.741369316,-0.137493507,0.000000000,-0.963666232,-0.299824305,-0.519072399,0.024837291
1539699443.395818,71.000000000,1539699443.372428179,0.010622216,0.000000000,0.000000000,0.000000000,0.000000000,0.000000000,0.000000000,0.000000000,0.000000000,0.000000000,0.000000000,-0.002080018,0.000000000,0.000000000,0.000000000,0.000000000,0.000000000,0.000000000,0.000000000,0.000000000,0.000000000,0.000000000,0.000000000,0.000000000,0.000000000,0.000000000,0.000000000,0.000000000,0.033176247,0.000000000,0.000000000,0.000000000,-0.002080018,0.006219854,0.000000000,0.000000000,0.910096858,0.000000000,0.000000000,-0.414395594,-0.701644788,-0.176375080,0.000000000,-0.907773057,-0.334107177,-0.495516520,-0.018642982
1539699444.021789,72.000000000,1539699443.973530769,0.009720493,0.000000000,0.000000000,0.000000000,0.000000000,0.000000000,0.000000000,0.000000000,0.000000000,0.000000000,0.000000000,-0.001708260,0.000000000,0.000000000,0.000000000,0.000000000,0.000000000,0.000000000,0.000000000,0.000000000,0.000000000,0.000000000,0.000000000,0.000000000,0.000000000,0.000000000,0.000000000,0.000000000,0.027807822,0.000000000,0.000000000,0.000000000,-0.001708260,0.005698134,0.000000000,0.000000000,0.911191857,0.000000000,0.000000000,-0.411982281,-0.636835548,-0.251915895,0.000000000,-0.834020667,-0.402887862,-0.439650430,-0.100943927
1539699444.384956,73.000000000,1539699444.374762297,0.009842676,0.000000000,0.000000000,0.000000000,0.000000000,0.000000000,0.000000000,0.000000000,0.000000000,0.000000000,0.000000000,-0.001839276,0.000000000,0.000000000,0.000000000,0.000000000,0.000000000,0.000000000,0.000000000,0.000000000,0.000000000,0.000000000,0.000000000,0.000000000,0.000000000,0.000000000,0.000000000,0.000000000,0.022311135,0.000000000,0.000000000,0.000000000,-0.001839276,0.005407813,0.000000000,0.000000000,0.943011716,0.000000000,0.000000000,-0.332759527,-0.588856345,-0.299788004,0.000000000,-0.787276866,-0.446863668,-0.390435823,-0.152712339
1539699444.808700,74.000000000,1539699444.776015043,0.009636337,0.000000000,0.000000000,0.000000000,0.000000000,0.000000000,0.000000000,0.000000000,0.000000000,0.000000000,0.000000000,-0.001678554,0.000000000,0.000000000,0.000000000,0.000000000,0.000000000,0.000000000,0.000000000,0.000000000,0.000000000,0.000000000,0.000000000,0.000000000,0.000000000,0.000000000,0.000000000,0.000000000,0.018853247,0.000000000,0.000000000,0.000000000,-0.001678554,0.004932136,0.000000000,0.000000000,0.971280287,0.000000000,0.000000000,-0.237938238,-0.532840821,-0.339491178,0.000000000,-0.729170516,-0.479949511,-0.336511126,-0.199032844
1539699445.212352,75.000000000,1539699445.177288532,0.010941353,0.000000000,0.000000000,0.000000000,0.000000000,0.000000000,0.000000000,0.000000000,0.000000000,0.000000000,0.000000000,-0.001941531,0.000000000,0.000000000,0.000000000,0.000000000,0.000000000,0.000000000,0.000000000,0.000000000,0.000000000,0.000000000,0.000000000,0.000000000,0.000000000,0.000000000,0.000000000,0.000000000,0.017102753,0.000000000,0.000000000,0.000000000,-0.001941531,0.004315147,0.000000000,0.000000000,0.991814668,0.000000000,0.000000000,-0.127685805,-0.480479125,-0.359058623,0.000000000,-0.689680967,-0.490438188,-0.271277282,-0.227679059
1539699445.616322,76.000000000,1539699445.578504562,0.012161819,0.000000000,0.000000000,0.000000000,0.000000000,0.000000000,0.000000000,0.000000000,0.000000000,0.000000000,0.000000000,-0.002054376,0.000000000,0.000000000,0.000000000,0.000000000,0.000000000,0.000000000,0.000000000,0.000000000,0.000000000,0.000000000,0.000000000,0.000000000,0.000000000,0.000000000,0.000000000,0.000000000,0.015622608,0.000000000,0.000000000,0.000000000,-0.002054376,0.004127176,0.000000000,0.000000000,0.999937211,0.000000000,0.000000000,-0.011205981,-0.427863779,-0.369270700,0.000000000,-0.648425057,-0.497756899,-0.207302501,-0.240784502
1539699445.990407,77.000000000,1539699445.979751825,0.012689046,0.000000000,0.000000000,0.000000000,0.000000000,0.000000000,0.000000000,0.000000000,0.000000000,0.000000000,0.000000000,-0.001130319,0.000000000,0.000000000,0.000000000,0.000000000,0.000000000,0.000000000,0.000000000,0.000000000,0.000000000,0.000000000,0.000000000,0.000000000,0.000000000,0.000000000,0.000000000,0.000000000,0.016581023,0.000000000,0.000000000,0.000000000,-0.001130319,0.003629867,0.000000000,0.000000000,0.994542750,0.000000000,0.000000000,0.104329856,-0.373162564,-0.368075717,0.000000000,-0.598453898,-0.488572468,-0.147871231,-0.247578966
1539699446.384069,78.000000000,1539699446.381013632,0.013842895,0.000000000,0.000000000,0.000000000,0.000000000,0.000000000,0.000000000,0.000000000,0.000000000,0.000000000,0.000000000,-0.000051097,0.000000000,0.000000000,0.000000000,0.000000000,0.000000000,0.000000000,0.000000000,0.000000000,0.000000000,0.000000000,0.000000000,0.000000000,0.000000000,0.000000000,0.000000000,0.000000000,0.018753752,0.000000000,0.000000000,0.000000000,-0.000051097,0.003608592,0.000000000,0.000000000,0.975214757,0.000000000,0.000000000,0.221260431,-0.324082703,-0.355933719,0.000000000,-0.559394371,-0.476076839,-0.088771035,-0.235790600
1539699446.808982,79.000000000,1539699446.782228947,0.011627237,0.000000000,0.000000000,0.000000000,0.000000000,0.000000000,0.000000000,0.000000000,0.000000000,0.000000000,0.000000000,0.000370015,0.000000000,0.000000000,0.000000000,0.000000000,0.000000000,0.000000000,0.000000000,0.000000000,0.000000000,0.000000000,0.000000000,0.000000000,0.000000000,0.000000000,0.000000000,0.000000000,0.016277624,0.000000000,0.000000000,0.000000000,0.000370015,0.003432091,0.000000000,0.000000000,0.945787656,0.000000000,0.000000000,0.324785637,-0.276646957,-0.327015518,0.000000000,-0.492306289,-0.444183621,-0.060987626,-0.209847415
1539699447.202788,80.000000000,1539699447.183491707,0.010923336,0.000000000,0.000000000,0.000000000,0.000000000,0.000000000,0.000000000,0.000000000,0.000000000,0.000000000,0.000000000,0.001138721,0.000000000,0.000000000,0.000000000,0.000000000,0.000000000,0.000000000,0.000000000,0.000000000,0.000000000,0.000000000,0.000000000,0.000000000,0.000000000,0.000000000,0.000000000,0.000000000,0.017436786,0.000000000,0.000000000,0.000000000,0.001138721,0.003762128,0.000000000,0.000000000,0.911570523,0.000000000,0.000000000,0.411143748,-0.231614374,-0.285118641,0.000000000,-0.440643899,-0.407791015,-0.022584848,-0.162446266
1539699447.607477,81.000000000,1539699447.586011410,0.009881251,0.000000000,0.000000000,0.000000000,0.000000000,0.000000000,0.000000000,0.000000000,0.000000000,0.000000000,0.000000000,0.001271507,0.000000000,0.000000000,0.000000000,0.000000000,0.000000000,0.000000000,0.000000000,0.000000000,0.000000000,0.000000000,0.000000000,0.000000000,0.000000000,0.000000000,0.000000000,0.000000000,0.013149887,0.000000000,0.000000000,0.000000000,0.001271507,0.003903192,0.000000000,0.000000000,0.896368516,0.000000000,0.000000000,0.443309693,-0.198332988,-0.238317436,0.000000000,-0.397141951,-0.363268504,0.000475976,-0.113366368
1539699448.042053,82.000000000,1539699447.987290621,0.007468447,0.000000000,0.000000000,0.000000000,0.000000000,0.000000000,0.000000000,0.000000000,0.000000000,0.000000000,0.000000000,0.001583893,0.000000000,0.000000000,0.000000000,0.000000000,0.000000000,0.000000000,0.000000000,0.000000000,0.000000000,0.000000000,0.000000000,0.000000000,0.000000000,0.000000000,0.000000000,0.000000000,0.013048805,0.000000000,0.000000000,0.000000000,0.001583893,0.003410054,0.000000000,0.000000000,0.912907169,0.000000000,0.000000000,0.408167245,-0.160503974,-0.187376668,0.000000000,-0.333344326,-0.304167999,0.012336378,-0.070585336
1539699448.415961,83.000000000,1539699448.388494730,0.006603581,0.000000000,0.000000000,0.000000000,0.000000000,0.000000000,0.000000000,0.000000000,0.000000000,0.000000000,0.000000000,0.001121205,0.000000000,0.000000000,0.000000000,0.000000000,0.000000000,0.000000000,0.000000000,0.000000000,0.000000000,0.000000000,0.000000000,0.000000000,0.000000000,0.000000000,0.000000000,0.000000000,0.009812249,0.000000000,0.000000000,0.000000000,0.001121205,0.002913725,0.000000000,0.000000000,0.928883551,0.000000000,0.000000000,0.370371905,-0.111403357,-0.139361074,0.000000000,-0.273928201,-0.247318929,0.051121487,-0.031403220
1539699448.819858,84.000000000,1539699448.789885044,0.005940875,0.000000000,0.000000000,0.000000000,0.000000000,0.000000000,0.000000000,0.000000000,0.000000000,0.000000000,0.000000000,0.000920863,0.000000000,0.000000000,0.000000000,0.000000000,0.000000000,0.000000000,0.000000000,0.000000000,0.000000000,0.000000000,0.000000000,0.000000000,0.000000000,0.000000000,0.000000000,0.000000000,0.009916507,0.000000000,0.000000000,0.000000000,0.000920863,0.002870266,0.000000000,0.000000000,0.941451061,0.000000000,0.000000000,0.337149670,-0.064782316,-0.100065954,0.000000000,-0.218936455,-0.207215673,0.089371823,0.007083765
1539699449.223949,85.000000000,1539699449.191166878,0.005886362,0.000000000,0.000000000,0.000000000,0.000000000,0.000000000,0.000000000,0.000000000,0.000000000,0.000000000,0.000000000,0.000990692,0.000000000,0.000000000,0.000000000,0.000000000,0.000000000,0.000000000,0.000000000,0.000000000,0.000000000,0.000000000,0.000000000,0.000000000,0.000000000,0.000000000,0.000000000,0.000000000,0.009287951,0.000000000,0.000000000,0.000000000,0.000990692,0.002925935,0.000000000,0.000000000,0.953273092,0.000000000,0.000000000,0.302109933,-0.015239644,-0.063339903,0.000000000,-0.168684910,-0.171523731,0.138205621,0.044843925
1539699449.607813,86.000000000,1539699449.592378616,0.005422053,0.000000000,0.000000000,0.000000000,0.000000000,0.000000000,0.000000000,0.000000000,0.000000000,0.000000000,0.000000000,0.001164128,0.000000000,0.000000000,0.000000000,0.000000000,0.000000000,0.000000000,0.000000000,0.000000000,0.000000000,0.000000000,0.000000000,0.000000000,0.000000000,0.000000000,0.000000000,0.000000000,0.007593831,0.000000000,0.000000000,0.000000000,0.001164128,0.002687481,0.000000000,0.000000000,0.962625211,0.000000000,0.000000000,0.270837043,0.036192660,-0.026849339,0.000000000,-0.111076521,-0.130531181,0.183461840,0.076832504
1539699450.021758,87.000000000,1539699449.993653297,0.005112486,0.000000000,0.000000000,0.000000000,0.000000000,0.000000000,0.000000000,0.000000000,0.000000000,0.000000000,0.000000000,0.001162280,0.000000000,0.000000000,0.000000000,0.000000000,0.000000000,0.000000000,0.000000000,0.000000000,0.000000000,0.000000000,0.000000000,0.000000000,0.000000000,0.000000000,0.000000000,0.000000000,0.007146286,0.000000000,0.000000000,0.000000000,0.001162280,0.002495596,0.000000000,0.000000000,0.966717561,0.000000000,0.000000000,0.255845964,0.093135389,0.006507487,0.000000000,-0.049867913,-0.093404392,0.236138691,0.106419366
1539699450.416125,88.000000000,1539699450.394888878,0.005253325,0.000000000,0.000000000,0.000000000,0.000000000,0.000000000,0.000000000,0.000000000,0.000000000,0.000000000,0.000000000,0.001235573,0.000000000,0.000000000,0.000000000,0.000000000,0.000000000,0.000000000,0.000000000,0.000000000,0.000000000,0.000000000,0.000000000,0.000000000,0.000000000,0.000000000,0.000000000,0.000000000,0.006085786,0.000000000,0.000000000,0.000000000,0.001235573,0.002315404,0.000000000,0.000000000,0.967496034,0.000000000,0.000000000,0.252886189,0.147643050,0.033492019,0.000000000,0.002683401,-0.062745264,0.292602700,0.129729303
1539699450.820296,89.000000000,1539699450.796115875,0.004780460,0.000000000,0.000000000,0.000000000,0.000000000,0.000000000,0.000000000,0.000000000,0.000000000,0.000000000,0.000000000,0.000894686,0.000000000,0.000000000,0.000000000,0.000000000,0.000000000,0.000000000,0.000000000,0.000000000,0.000000000,0.000000000,0.000000000,0.000000000,0.000000000,0.000000000,0.000000000,0.000000000,0.006192584,0.000000000,0.000000000,0.000000000,0.000894686,0.002270332,0.000000000,0.000000000,0.969092942,0.000000000,0.000000000,0.246695905,0.209108776,0.063999437,0.000000000,0.070827038,-0.031296569,0.347390514,0.159295443
1539699451.214392,90.000000000,1539699451.197484970,0.004217973,0.000000000,0.000000000,0.000000000,0.000000000,0.000000000,0.000000000,0.000000000,0.000000000,0.000000000,0.000000000,0.000918165,0.000000000,0.000000000,0.000000000,0.000000000,0.000000000,0.000000000,0.000000000,0.000000000,0.000000000,0.000000000,0.000000000,0.000000000,0.000000000,0.000000000,0.000000000,0.000000000,0.005623599,0.000000000,0.000000000,0.000000000,0.000918165,0.001869538,0.000000000,0.000000000,0.971197163,0.000000000,0.000000000,0.238277296,0.268024382,0.093367778,0.000000000,0.138132532,0.006891469,0.397916232,0.179844087
1539699451.608195,91.000000000,1539699451.598808527,0.004355389,0.000000000,0.000000000,0.000000000,0.000000000,0.000000000,0.000000000,0.000000000,0.000000000,0.000000000,0.000000000,0.000921643,0.000000000,0.000000000,0.000000000,0.000000000,0.000000000,0.000000000,0.000000000,0.000000000,0.000000000,0.000000000,0.000000000,0.000000000,0.000000000,0.000000000,0.000000000,0.000000000,0.005500554,0.000000000,0.000000000,0.000000000,0.000921643,0.001840651,0.000000000,0.000000000,0.971967246,0.000000000,0.000000000,0.235116298,0.330628875,0.122452877,0.000000000,0.198638131,0.036647268,0.462619619,0.208258485
1539699452.032822,92.000000000,1539699451.999997377,0.003855861,0.000000000,0.000000000,0.000000000,0.000000000,0.000000000,0.000000000,0.000000000,0.000000000,0.000000000,0.000000000,0.000750926,0.000000000,0.000000000,0.000000000,0.000000000,0.000000000,0.000000000,0.000000000,0.000000000,0.000000000,0.000000000,0.000000000,0.000000000,0.000000000,0.000000000,0.000000000,0.000000000,0.005160495,0.000000000,0.000000000,0.000000000,0.000750926,0.001668702,0.000000000,0.000000000,0.972183164,0.000000000,0.000000000,0.234221894,0.388208569,0.149174705,0.000000000,0.264017408,0.067475201,0.512399731,0.230874210
1539699452.437373,93.000000000,1539699452.401288986,0.003768654,0.000000000,0.000000000,0.000000000,0.000000000,0.000000000,0.000000000,0.000000000,0.000000000,0.000000000,0.000000000,0.000820224,0.000000000,0.000000000,0.000000000,0.000000000,0.000000000,0.000000000,0.000000000,0.000000000,0.000000000,0.000000000,0.000000000,0.000000000,0.000000000,0.000000000,0.000000000,0.000000000,0.005349219,0.000000000,0.000000000,0.000000000,0.000820224,0.001737376,0.000000000,0.000000000,0.969330217,0.000000000,0.000000000,0.245761940,0.443909952,0.179234055,0.000000000,0.321131224,0.095870373,0.566688679,0.262597737
1539699452.831100,94.000000000,1539699452.802508116,0.003831264,0.000000000,0.000000000,0.000000000,0.000000000,0.000000000,0.000000000,0.000000000,0.000000000,0.000000000,0.000000000,0.001023569,0.000000000,0.000000000,0.000000000,0.000000000,0.000000000,0.000000000,0.000000000,0.000000000,0.000000000,0.000000000,0.000000000,0.000000000,0.000000000,0.000000000,0.000000000,0.000000000,0.005653207,0.000000000,0.000000000,0.000000000,0.001023569,0.001898450,0.000000000,0.000000000,0.958766399,0.000000000,0.000000000,0.284195341,0.500427281,0.210837687,0.000000000,0.376632878,0.123695281,0.624221684,0.297980093
