__time,/amcl_pose/header/seq,/amcl_pose/header/stamp,/amcl_pose/pose/covariance[0],/amcl_pose/pose/covariance[10],/amcl_pose/pose/covariance[11],/amcl_pose/pose/covariance[12],/amcl_pose/pose/covariance[13],/amcl_pose/pose/covariance[14],/amcl_pose/pose/covariance[15],/amcl_pose/pose/covariance[16],/amcl_pose/pose/covariance[17],/amcl_pose/pose/covariance[18],/amcl_pose/pose/covariance[19],/amcl_pose/pose/covariance[1],/amcl_pose/pose/covariance[20],/amcl_pose/pose/covariance[21],/amcl_pose/pose/covariance[22],/amcl_pose/pose/covariance[23],/amcl_pose/pose/covariance[24],/amcl_pose/pose/covariance[25],/amcl_pose/pose/covariance[26],/amcl_pose/pose/covariance[27],/amcl_pose/pose/covariance[28],/amcl_pose/pose/covariance[29],/amcl_pose/pose/covariance[2],/amcl_pose/pose/covariance[30],/amcl_pose/pose/covariance[31],/amcl_pose/pose/covariance[32],/amcl_pose/pose/covariance[33],/amcl_pose/pose/covariance[34],/amcl_pose/pose/covariance[35],/amcl_pose/pose/covariance[3],/amcl_pose/pose/covariance[4],/amcl_pose/pose/covariance[5],/amcl_pose/pose/covariance[6],/amcl_pose/pose/covariance[7],/amcl_pose/pose/covariance[8],/amcl_pose/pose/covariance[9],/amcl_pose/pose/pose/orientation/w,/amcl_pose/pose/pose/orientation/x,/amcl_pose/pose/pose/orientation/y,/amcl_pose/pose/pose/orientation/z,/amcl_pose/pose/pose/position/x,/amcl_pose/pose/pose/position/y,/amcl_pose/pose/pose/position/z,Lower Bound X,Lower Bound Y,Upper Bound X,Upper Bound Y
1686072672.727312,1.000000000,1686072672.671326637,0.003660264,0.000000000,0.000000000,0.000000000,0.000000000,0.000000000,0.000000000,0.000000000,0.000000000,0.000000000,0.000000000,-0.000199377,0.000000000,0.000000000,0.000000000,0.000000000,0.000000000,0.000000000,0.000000000,0.000000000,0.000000000,0.000000000,0.000000000,0.000000000,0.000000000,0.000000000,0.000000000,0.000000000,0.005337967,0.000000000,0.000000000,0.000000000,-0.000199377,0.004571909,0.000000000,0.000000000,0.999822275,0.000000000,0.000000000,-0.018852534,0.033953931,-0.002801440,0.000000000,-0.087046307,-0.138033234,0.154954169,0.132430353
1686072674.276182,2.000000000,1686072674.277539015,0.003467149,0.000000000,0.000000000,0.000000000,0.000000000,0.000000000,0.000000000,0.000000000,0.000000000,0.000000000,0.000000000,-0.000205270,0.000000000,0.000000000,0.000000000,0.000000000,0.000000000,0.000000000,0.000000000,0.000000000,0.000000000,0.000000000,0.000000000,0.000000000,0.000000000,0.000000000,0.000000000,0.000000000,0.004763872,0.000000000,0.000000000,0.000000000,-0.000205270,0.004153813,0.000000000,0.000000000,0.999730794,0.000000000,0.000000000,-0.023202149,0.079904196,-0.008064948,0.000000000,-0.037860812,-0.136965111,0.197669203,0.120835216
1686072674.708673,3.000000000,1686072674.679978371,0.003844014,0.000000000,0.000000000,0.000000000,0.000000000,0.000000000,0.000000000,0.000000000,0.000000000,0.000000000,0.000000000,-0.000266407,0.000000000,0.000000000,0.000000000,0.000000000,0.000000000,0.000000000,0.000000000,0.000000000,0.000000000,0.000000000,0.000000000,0.000000000,0.000000000,0.000000000,0.000000000,0.000000000,0.005116522,0.000000000,0.000000000,0.000000000,-0.000266407,0.003889678,0.000000000,0.000000000,0.999747329,0.000000000,0.000000000,-0.022478390,0.161587178,-0.012584647,0.000000000,0.037586945,-0.137319206,0.285587412,0.112149912
1686072675.101010,4.000000000,1686072675.081214190,0.004179217,0.000000000,0.000000000,0.000000000,0.000000000,0.000000000,0.000000000,0.000000000,0.000000000,0.000000000,0.000000000,-0.000325393,0.000000000,0.000000000,0.000000000,0.000000000,0.000000000,0.000000000,0.000000000,0.000000000,0.000000000,0.000000000,0.000000000,0.000000000,0.000000000,0.000000000,0.000000000,0.000000000,0.004639211,0.000000000,0.000000000,0.000000000,-0.000325393,0.003480620,0.000000000,0.000000000,0.999729365,0.000000000,0.000000000,-0.023263619,0.240405783,-0.020462199,0.000000000,0.111112053,-0.138455753,0.369699513,0.097531355
1686072675.513415,5.000000000,1686072675.482491970,0.004540968,0.000000000,0.000000000,0.000000000,0.000000000,0.000000000,0.000000000,0.000000000,0.000000000,0.000000000,0.000000000,-0.000665362,0.000000000,0.000000000,0.000000000,0.000000000,0.000000000,0.000000000,0.000000000,0.000000000,0.000000000,0.000000000,0.000000000,0.000000000,0.000000000,0.000000000,0.000000000,0.000000000,0.004076155,0.000000000,0.000000000,0.000000000,-0.000665362,0.003597482,0.000000000,0.000000000,0.999648427,0.000000000,0.000000000,-0.026514581,0.314042972,-0.030456782,0.000000000,0.179269562,-0.150414811,0.448816382,0.089501248
1686072675.915748,6.000000000,1686072675.883731365,0.006275122,0.000000000,0.000000000,0.000000000,0.000000000,0.000000000,0.000000000,0.000000000,0.000000000,0.000000000,0.000000000,-0.000862667,0.000000000,0.000000000,0.000000000,0.000000000,0.000000000,0.000000000,0.000000000,0.000000000,0.000000000,0.000000000,0.000000000,0.000000000,0.000000000,0.000000000,0.000000000,0.000000000,0.004131312,0.000000000,0.000000000,0.000000000,-0.000862667,0.003110042,0.000000000,0.000000000,0.999258936,0.000000000,0.000000000,-0.038491289,0.385726944,-0.030399030,0.000000000,0.227295612,-0.141934536,0.544158275,0.081136476
1686072676.308105,7.000000000,1686072676.284947872,0.007080750,0.000000000,0.000000000,0.000000000,0.000000000,0.000000000,0.000000000,0.000000000,0.000000000,0.000000000,0.000000000,-0.001094131,0.000000000,0.000000000,0.000000000,0.000000000,0.000000000,0.000000000,0.000000000,0.000000000,0.000000000,0.000000000,0.000000000,0.000000000,0.000000000,0.000000000,0.000000000,0.000000000,0.004021374,0.000000000,0.000000000,0.000000000,-0.001094131,0.002786240,0.000000000,0.000000000,0.998433744,0.000000000,0.000000000,-0.055946933,0.464506222,-0.039151780,0.000000000,0.296211833,-0.144721472,0.632800612,0.066417911
1686072676.720485,8.000000000,1686072676.686172009,0.007071010,0.000000000,0.000000000,0.000000000,0.000000000,0.000000000,0.000000000,0.000000000,0.000000000,0.000000000,0.000000000,-0.001168441,0.000000000,0.000000000,0.000000000,0.000000000,0.000000000,0.000000000,0.000000000,0.000000000,0.000000000,0.000000000,0.000000000,0.000000000,0.000000000,0.000000000,0.000000000,0.000000000,0.004656013,0.000000000,0.000000000,0.000000000,-0.001168441,0.002695624,0.000000000,0.000000000,0.996934781,0.000000000,0.000000000,-0.078237097,0.535089761,-0.048948173,0.000000000,0.366911160,-0.152786968,0.703268362,0.054890623
1686072677.132888,9.000000000,1686072677.091149092,0.007314183,0.000000000,0.000000000,0.000000000,0.000000000,0.000000000,0.000000000,0.000000000,0.000000000,0.000000000,0.000000000,-0.001588335,0.000000000,0.000000000,0.000000000,0.000000000,0.000000000,0.000000000,0.000000000,0.000000000,0.000000000,0.000000000,0.000000000,0.000000000,0.000000000,0.000000000,0.000000000,0.000000000,0.004685727,0.000000000,0.000000000,0.000000000,-0.001588335,0.002667978,0.000000000,0.000000000,0.994802675,0.000000000,0.000000000,-0.101821599,0.606164264,-0.065252071,0.000000000,0.435118273,-0.168557008,0.777210254,0.038052867
1686072677.726367,10.000000000,1686072677.689743757,0.008339700,0.000000000,0.000000000,0.000000000,0.000000000,0.000000000,0.000000000,0.000000000,0.000000000,0.000000000,0.000000000,-0.001378213,0.000000000,0.000000000,0.000000000,0.000000000,0.000000000,0.000000000,0.000000000,0.000000000,0.000000000,0.000000000,0.000000000,0.000000000,0.000000000,0.000000000,0.000000000,0.000000000,0.006306545,0.000000000,0.000000000,0.000000000,-0.001378213,0.002713290,0.000000000,0.000000000,0.999683329,0.000000000,0.000000000,-0.025164304,0.708779831,-0.084870736,0.000000000,0.526135912,-0.189049245,0.891423750,0.019307773
1686072678.118605,11.000000000,1686072678.090978861,0.009677442,0.000000000,0.000000000,0.000000000,0.000000000,0.000000000,0.000000000,0.000000000,0.000000000,0.000000000,0.000000000,-0.001302748,0.000000000,0.000000000,0.000000000,0.000000000,0.000000000,0.000000000,0.000000000,0.000000000,0.000000000,0.000000000,0.000000000,0.000000000,0.000000000,0.000000000,0.000000000,0.000000000,0.007904832,0.000000000,0.000000000,0.000000000,-0.001302748,0.002667698,0.000000000,0.000000000,0.997212948,0.000000000,0.000000000,0.074607883,0.759036768,-0.086972352,0.000000000,0.562288784,-0.190271884,0.955784753,0.016327181
1686072678.490832,12.000000000,1686072678.492351294,0.009886496,0.000000000,0.000000000,0.000000000,0.000000000,0.000000000,0.000000000,0.000000000,0.000000000,0.000000000,0.000000000,-0.000634983,0.000000000,0.000000000,0.000000000,0.000000000,0.000000000,0.000000000,0.000000000,0.000000000,0.000000000,0.000000000,0.000000000,0.000000000,0.000000000,0.000000000,0.000000000,0.000000000,0.008352723,0.000000000,0.000000000,0.000000000,-0.000634983,0.002710891,0.000000000,0.000000000,0.983981747,0.000000000,0.000000000,0.178269239,0.807960884,-0.073559563,0.000000000,0.609099159,-0.177691999,1.006822608,0.030572872
1686072678.893167,13.000000000,1686072678.893595457,0.009038840,0.000000000,0.000000000,0.000000000,0.000000000,0.000000000,0.000000000,0.000000000,0.000000000,0.000000000,0.000000000,0.000384591,0.000000000,0.000000000,0.000000000,0.000000000,0.000000000,0.000000000,0.000000000,0.000000000,0.000000000,0.000000000,0.000000000,0.000000000,0.000000000,0.000000000,0.000000000,0.000000000,0.008418702,0.000000000,0.000000000,0.000000000,0.000384591,0.003351116,0.000000000,0.000000000,0.960463751,0.000000000,0.000000000,0.278405071,0.849110974,-0.051236311,0.000000000,0.658965341,-0.167013954,1.039256607,0.064541332
1686072679.315604,14.000000000,1686072679.294955492,0.008843260,0.000000000,0.000000000,0.000000000,0.000000000,0.000000000,0.000000000,0.000000000,0.000000000,0.000000000,0.000000000,0.000971235,0.000000000,0.000000000,0.000000000,0.000000000,0.000000000,0.000000000,0.000000000,0.000000000,0.000000000,0.000000000,0.000000000,0.000000000,0.000000000,0.000000000,0.000000000,0.000000000,0.007559067,0.000000000,0.000000000,0.000000000,0.000971235,0.003135867,0.000000000,0.000000000,0.940709806,0.000000000,0.000000000,0.339212414,0.891846712,-0.019564349,0.000000000,0.703769491,-0.131561968,1.079923932,0.092433270
1686072679.748032,15.000000000,1686072679.696195364,0.008630022,0.000000000,0.000000000,0.000000000,0.000000000,0.000000000,0.000000000,0.000000000,0.000000000,0.000000000,0.000000000,0.001363914,0.000000000,0.000000000,0.000000000,0.000000000,0.000000000,0.000000000,0.000000000,0.000000000,0.000000000,0.000000000,0.000000000,0.000000000,0.000000000,0.000000000,0.000000000,0.000000000,0.006486353,0.000000000,0.000000000,0.000000000,0.001363914,0.003512875,0.000000000,0.000000000,0.914278979,0.000000000,0.000000000,0.405085112,0.934141395,0.021039021,0.000000000,0.748345574,-0.097500000,1.119937216,0.139578042
1686072680.130107,16.000000000,1686072680.098648787,0.007878426,0.000000000,0.000000000,0.000000000,0.000000000,0.000000000,0.000000000,0.000000000,0.000000000,0.000000000,0.000000000,0.001762748,0.000000000,0.000000000,0.000000000,0.000000000,0.000000000,0.000000000,0.000000000,0.000000000,0.000000000,0.000000000,0.000000000,0.000000000,0.000000000,0.000000000,0.000000000,0.000000000,0.005960173,0.000000000,0.000000000,0.000000000,0.001762748,0.004130693,0.000000000,0.000000000,0.884189200,0.000000000,0.000000000,0.467128953,0.976314941,0.069490637,0.000000000,0.798793942,-0.059050302,1.153835939,0.198031576
1686072680.512281,17.000000000,1686072680.499881029,0.007009168,0.000000000,0.000000000,0.000000000,0.000000000,0.000000000,0.000000000,0.000000000,0.000000000,0.000000000,0.000000000,0.001777885,0.000000000,0.000000000,0.000000000,0.000000000,0.000000000,0.000000000,0.000000000,0.000000000,0.000000000,0.000000000,0.000000000,0.000000000,0.000000000,0.000000000,0.000000000,0.000000000,0.006148436,0.000000000,0.000000000,0.000000000,0.001777885,0.004364280,0.000000000,0.000000000,0.851115663,0.000000000,0.000000000,0.524978217,1.010456738,0.129690172,0.000000000,0.843015194,-0.002435219,1.177898281,0.261815562
1686072680.964914,18.000000000,1686072680.901182890,0.005793584,0.000000000,0.000000000,0.000000000,0.000000000,0.000000000,0.000000000,0.000000000,0.000000000,0.000000000,0.000000000,0.001581239,0.000000000,0.000000000,0.000000000,0.000000000,0.000000000,0.000000000,0.000000000,0.000000000,0.000000000,0.000000000,0.000000000,0.000000000,0.000000000,0.000000000,0.000000000,0.000000000,0.006283013,0.000000000,0.000000000,0.000000000,0.001581239,0.004478085,0.000000000,0.000000000,0.831847665,0.000000000,0.000000000,0.555004020,1.039862469,0.198555135,0.000000000,0.887631281,0.064718138,1.192093657,0.332392131
1686072681.357230,19.000000000,1686072681.302616119,0.004462294,0.000000000,0.000000000,0.000000000,0.000000000,0.000000000,0.000000000,0.000000000,0.000000000,0.000000000,0.000000000,0.001753278,0.000000000,0.000000000,0.000000000,0.000000000,0.000000000,0.000000000,0.000000000,0.000000000,0.000000000,0.000000000,0.000000000,0.000000000,0.000000000,0.000000000,0.000000000,0.000000000,0.005436845,0.000000000,0.000000000,0.000000000,0.001753278,0.004731315,0.000000000,0.000000000,0.842856416,0.000000000,0.000000000,0.538138515,1.069443239,0.270162318,0.000000000,0.935842436,0.132593215,1.203044041,0.407731421
1686072681.739346,20.000000000,1686072681.703918695,0.003974027,0.000000000,0.000000000,0.000000000,0.000000000,0.000000000,0.000000000,0.000000000,0.000000000,0.000000000,0.000000000,0.001488062,0.000000000,0.000000000,0.000000000,0.000000000,0.000000000,0.000000000,0.000000000,0.000000000,0.000000000,0.000000000,0.000000000,0.000000000,0.000000000,0.000000000,0.000000000,0.000000000,0.005648276,0.000000000,0.000000000,0.000000000,0.001488062,0.004365353,0.000000000,0.000000000,0.850688465,0.000000000,0.000000000,0.525670177,1.102995567,0.338331877,0.000000000,0.976915794,0.206190239,1.229075339,0.470473514
1686072682.111566,21.000000000,1686072682.105187654,0.003867719,0.000000000,0.000000000,0.000000000,0.000000000,0.000000000,0.000000000,0.000000000,0.000000000,0.000000000,0.000000000,0.001193498,0.000000000,0.000000000,0.000000000,0.000000000,0.000000000,0.000000000,0.000000000,0.000000000,0.000000000,0.000000000,0.000000000,0.000000000,0.000000000,0.000000000,0.000000000,0.000000000,0.005735874,0.000000000,0.000000000,0.000000000,0.001193498,0.003936714,0.000000000,0.000000000,0.859183172,0.000000000,0.000000000,0.511668131,1.135699070,0.395166120,0.000000000,1.011317091,0.269679636,1.260081049,0.520652605
1686072682.503816,22.000000000,1686072682.506524801,0.003543584,0.000000000,0.000000000,0.000000000,0.000000000,0.000000000,0.000000000,0.000000000,0.000000000,0.000000000,0.000000000,0.001169169,0.000000000,0.000000000,0.000000000,0.000000000,0.000000000,0.000000000,0.000000000,0.000000000,0.000000000,0.000000000,0.000000000,0.000000000,0.000000000,0.000000000,0.000000000,0.000000000,0.005066080,0.000000000,0.000000000,0.000000000,0.001169169,0.003828324,0.000000000,0.000000000,0.870013307,0.000000000,0.000000000,0.493028240,1.175367206,0.457143623,0.000000000,1.056311178,0.333396720,1.294423235,0.580890527
1686072682.906109,23.000000000,1686072682.907851458,0.003506830,0.000000000,0.000000000,0.000000000,0.000000000,0.000000000,0.000000000,0.000000000,0.000000000,0.000000000,0.000000000,0.001324941,0.000000000,0.000000000,0.000000000,0.000000000,0.000000000,0.000000000,0.000000000,0.000000000,0.000000000,0.000000000,0.000000000,0.000000000,0.000000000,0.000000000,0.000000000,0.000000000,0.005144803,0.000000000,0.000000000,0.000000000,0.001324941,0.003795672,0.000000000,0.000000000,0.873901729,0.000000000,0.000000000,0.486102631,1.217268125,0.525542601,0.000000000,1.098831132,0.402324546,1.335705117,0.648760655
1686072683.308385,24.000000000,1686072683.310176849,0.003148723,0.000000000,0.000000000,0.000000000,0.000000000,0.000000000,0.000000000,0.000000000,0.000000000,0.000000000,0.000000000,0.001421240,0.000000000,0.000000000,0.000000000,0.000000000,0.000000000,0.000000000,0.000000000,0.000000000,0.000000000,0.000000000,0.000000000,0.000000000,0.000000000,0.000000000,0.000000000,0.000000000,0.005641426,0.000000000,0.000000000,0.000000000,0.001421240,0.004093507,0.000000000,0.000000000,0.884695245,0.000000000,0.000000000,0.466169844,1.261061795,0.593645206,0.000000000,1.148834836,0.465684169,1.373288753,0.721606243
1686072683.710685,25.000000000,1686072683.713917255,0.002946766,0.000000000,0.000000000,0.000000000,0.000000000,0.000000000,0.000000000,0.000000000,0.000000000,0.000000000,0.000000000,0.001659383,0.000000000,0.000000000,0.000000000,0.000000000,0.000000000,0.000000000,0.000000000,0.000000000,0.000000000,0.000000000,0.000000000,0.000000000,0.000000000,0.000000000,0.000000000,0.000000000,0.004960089,0.000000000,0.000000000,0.000000000,0.001659383,0.004095836,0.000000000,0.000000000,0.903178866,0.000000000,0.000000000,0.429264412,1.307668319,0.652250934,0.000000000,1.199100080,0.524253495,1.416236559,0.780248373
1686072684.305617,26.000000000,1686072684.312505484,0.003556127,0.000000000,0.000000000,0.000000000,0.000000000,0.000000000,0.000000000,0.000000000,0.000000000,0.000000000,0.000000000,0.002574668,0.000000000,0.000000000,0.000000000,0.000000000,0.000000000,0.000000000,0.000000000,0.000000000,0.000000000,0.000000000,0.000000000,0.000000000,0.000000000,0.000000000,0.000000000,0.000000000,0.006303599,0.000000000,0.000000000,0.000000000,0.002574668,0.005282058,0.000000000,0.000000000,0.930190258,0.000000000,0.000000000,0.367077763,1.382798370,0.735000883,0.000000000,1.263531828,0.589645347,1.502064912,0.880356419
1686072684.728106,27.000000000,1686072684.713827133,0.003343967,0.000000000,0.000000000,0.000000000,0.000000000,0.000000000,0.000000000,0.000000000,0.000000000,0.000000000,0.000000000,0.002244789,0.000000000,0.000000000,0.000000000,0.000000000,0.000000000,0.000000000,0.000000000,0.000000000,0.000000000,0.000000000,0.000000000,0.000000000,0.000000000,0.000000000,0.000000000,0.000000000,0.006741907,0.000000000,0.000000000,0.000000000,0.002244789,0.004923802,0.000000000,0.000000000,0.947730400,0.000000000,0.000000000,0.319072230,1.443085051,0.787002045,0.000000000,1.327430962,0.646662422,1.558739140,0.927341668
1686072685.150453,28.000000000,1686072685.115006924,0.003336195,0.000000000,0.000000000,0.000000000,0.000000000,0.000000000,0.000000000,0.000000000,0.000000000,0.000000000,0.000000000,0.002321581,0.000000000,0.000000000,0.000000000,0.000000000,0.000000000,0.000000000,0.000000000,0.000000000,0.000000000,0.000000000,0.000000000,0.000000000,0.000000000,0.000000000,0.000000000,0.000000000,0.005869794,0.000000000,0.000000000,0.000000000,0.002321581,0.005118967,0.000000000,0.000000000,0.958839436,0.000000000,0.000000000,0.283948827,1.506482093,0.832635479,0.000000000,1.390962475,0.689541562,1.622001710,0.975729396
1686072685.552760,29.000000000,1686072685.516235590,0.002994010,0.000000000,0.000000000,0.000000000,0.000000000,0.000000000,0.000000000,0.000000000,0.000000000,0.000000000,0.000000000,0.001884046,0.000000000,0.000000000,0.000000000,0.000000000,0.000000000,0.000000000,0.000000000,0.000000000,0.000000000,0.000000000,0.000000000,0.000000000,0.000000000,0.000000000,0.000000000,0.000000000,0.005501490,0.000000000,0.000000000,0.000000000,0.001884046,0.005017806,0.000000000,0.000000000,0.968196041,0.000000000,0.000000000,0.250192778,1.568032841,0.866143765,0.000000000,1.458597751,0.724470820,1.677467932,1.007816711
1686072685.914768,30.000000000,1686072685.917592287,0.003132023,0.000000000,0.000000000,0.000000000,0.000000000,0.000000000,0.000000000,0.000000000,0.000000000,0.000000000,0.000000000,0.001922677,0.000000000,0.000000000,0.000000000,0.000000000,0.000000000,0.000000000,0.000000000,0.000000000,0.000000000,0.000000000,0.000000000,0.000000000,0.000000000,0.000000000,0.000000000,0.000000000,0.006002138,0.000000000,0.000000000,0.000000000,0.001922677,0.004817267,0.000000000,0.000000000,0.956729229,0.000000000,0.000000000,0.290979693,1.626859870,0.893442608,0.000000000,1.514930920,0.754629538,1.738788821,1.032255678
1686072686.347268,31.000000000,1686072686.318841934,0.003661286,0.000000000,0.000000000,0.000000000,0.000000000,0.000000000,0.000000000,0.000000000,0.000000000,0.000000000,0.000000000,0.002652232,0.000000000,0.000000000,0.000000000,0.000000000,0.000000000,0.000000000,0.000000000,0.000000000,0.000000000,0.000000000,0.000000000,0.000000000,0.000000000,0.000000000,0.000000000,0.000000000,0.005783585,0.000000000,0.000000000,0.000000000,0.002652232,0.005144959,0.000000000,0.000000000,0.934486175,0.000000000,0.000000000,0.355999423,1.682208907,0.935291333,0.000000000,1.561191776,0.791834594,1.803226037,1.078748072
1686072686.719498,32.000000000,1686072686.720094681,0.003947109,0.000000000,0.000000000,0.000000000,0.000000000,0.000000000,0.000000000,0.000000000,0.000000000,0.000000000,0.000000000,0.002909097,0.000000000,0.000000000,0.000000000,0.000000000,0.000000000,0.000000000,0.000000000,0.000000000,0.000000000,0.000000000,0.000000000,0.000000000,0.000000000,0.000000000,0.000000000,0.000000000,0.005579073,0.000000000,0.000000000,0.000000000,0.002909097,0.005001218,0.000000000,0.000000000,0.909532884,0.000000000,0.000000000,0.415631968,1.726269306,0.976555271,0.000000000,1.600617269,0.835116696,1.851921342,1.117993846
1686072687.141954,33.000000000,1686072687.121282578,0.003751727,0.000000000,0.000000000,0.000000000,0.000000000,0.000000000,0.000000000,0.000000000,0.000000000,0.000000000,0.000000000,0.002998434,0.000000000,0.000000000,0.000000000,0.000000000,0.000000000,0.000000000,0.000000000,0.000000000,0.000000000,0.000000000,0.000000000,0.000000000,0.000000000,0.000000000,0.000000000,0.000000000,0.006317107,0.000000000,0.000000000,0.000000000,0.002998434,0.005457723,0.000000000,0.000000000,0.865357555,0.000000000,0.000000000,0.501154969,1.760852190,1.021991032,0.000000000,1.638349498,0.874238224,1.883354883,1.169743839
1686072687.564404,34.000000000,1686072687.522544384,0.003515929,0.000000000,0.000000000,0.000000000,0.000000000,0.000000000,0.000000000,0.000000000,0.000000000,0.000000000,0.000000000,0.002931079,0.000000000,0.000000000,0.000000000,0.000000000,0.000000000,0.000000000,0.000000000,0.000000000,0.000000000,0.000000000,0.000000000,0.000000000,0.000000000,0.000000000,0.000000000,0.000000000,0.006479749,0.000000000,0.000000000,0.000000000,0.002931079,0.006090392,0.000000000,0.000000000,0.813618395,0.000000000,0.000000000,0.581399267,1.785709639,1.075611398,0.000000000,1.667119094,0.919529471,1.904300184,1.231693325
1686072687.936563,35.000000000,1686072687.923785925,0.002964095,0.000000000,0.000000000,0.000000000,0.000000000,0.000000000,0.000000000,0.000000000,0.000000000,0.000000000,0.000000000,0.002547672,0.000000000,0.000000000,0.000000000,0.000000000,0.000000000,0.000000000,0.000000000,0.000000000,0.000000000,0.000000000,0.000000000,0.000000000,0.000000000,0.000000000,0.000000000,0.000000000,0.006673239,0.000000000,0.000000000,0.000000000,0.002547672,0.006287068,0.000000000,0.000000000,0.758588456,0.000000000,0.000000000,0.651570068,1.801427335,1.124026458,0.000000000,1.692540322,0.965444392,1.910314348,1.282608524
1686072688.369068,36.000000000,1686072688.325008154,0.002935726,0.000000000,0.000000000,0.000000000,0.000000000,0.000000000,0.000000000,0.000000000,0.000000000,0.000000000,0.000000000,0.002492881,0.000000000,0.000000000,0.000000000,0.000000000,0.000000000,0.000000000,0.000000000,0.000000000,0.000000000,0.000000000,0.000000000,0.000000000,0.000000000,0.000000000,0.000000000,0.000000000,0.007099216,0.000000000,0.000000000,0.000000000,0.002492881,0.007158630,0.000000000,0.000000000,0.712108577,0.000000000,0.000000000,0.702069351,1.806014689,1.192222224,0.000000000,1.697650013,1.023004847,1.914379365,1.361439600
1686072688.731164,37.000000000,1686072688.726246595,0.003173834,0.000000000,0.000000000,0.000000000,0.000000000,0.000000000,0.000000000,0.000000000,0.000000000,0.000000000,0.000000000,0.002008662,0.000000000,0.000000000,0.000000000,0.000000000,0.000000000,0.000000000,0.000000000,0.000000000,0.000000000,0.000000000,0.000000000,0.000000000,0.000000000,0.000000000,0.000000000,0.000000000,0.007089910,0.000000000,0.000000000,0.000000000,0.002008662,0.006972321,0.000000000,0.000000000,0.688888257,0.000000000,0.000000000,0.724867553,1.805257626,1.273391767,0.000000000,1.692584041,1.106390914,1.917931211,1.440392620
1686072689.143480,38.000000000,1686072689.127576828,0.002782413,0.000000000,0.000000000,0.000000000,0.000000000,0.000000000,0.000000000,0.000000000,0.000000000,0.000000000,0.000000000,0.002033547,0.000000000,0.000000000,0.000000000,0.000000000,0.000000000,0.000000000,0.000000000,0.000000000,0.000000000,0.000000000,0.000000000,0.000000000,0.000000000,0.000000000,0.000000000,0.000000000,0.006942949,0.000000000,0.000000000,0.000000000,0.002033547,0.006493518,0.000000000,0.000000000,0.691082291,0.000000000,0.000000000,0.722776084,1.797747729,1.347876281,0.000000000,1.692250569,1.186711548,1.903244890,1.509041013
1686072689.586014,39.000000000,1686072689.531253338,0.002517229,0.000000000,0.000000000,0.000000000,0.000000000,0.000000000,0.000000000,0.000000000,0.000000000,0.000000000,0.000000000,0.001758802,0.000000000,0.000000000,0.000000000,0.000000000,0.000000000,0.000000000,0.000000000,0.000000000,0.000000000,0.000000000,0.000000000,0.000000000,0.000000000,0.000000000,0.000000000,0.000000000,0.006724866,0.000000000,0.000000000,0.000000000,0.001758802,0.006659084,0.000000000,0.000000000,0.714505908,0.000000000,0.000000000,0.699629407,1.795125189,1.430897971,0.000000000,1.694781194,1.267691545,1.895469184,1.594104397
1686072690.169333,40.000000000,1686072690.131084919,0.002469065,0.000000000,0.000000000,0.000000000,0.000000000,0.000000000,0.000000000,0.000000000,0.000000000,0.000000000,0.000000000,0.001926295,0.000000000,0.000000000,0.000000000,0.000000000,0.000000000,0.000000000,0.000000000,0.000000000,0.000000000,0.000000000,0.000000000,0.000000000,0.000000000,0.000000000,0.000000000,0.000000000,0.007313377,0.000000000,0.000000000,0.000000000,0.001926295,0.007829794,0.000000000,0.000000000,0.726884323,0.000000000,0.000000000,0.686759916,1.798446993,1.542932275,0.000000000,1.699067613,1.365960032,1.897826373,1.719904519
1686072690.601784,41.000000000,1686072690.532309532,0.002749387,0.000000000,0.000000000,0.000000000,0.000000000,0.000000000,0.000000000,0.000000000,0.000000000,0.000000000,0.000000000,0.002114102,0.000000000,0.000000000,0.000000000,0.000000000,0.000000000,0.000000000,0.000000000,0.000000000,0.000000000,0.000000000,0.000000000,0.000000000,0.000000000,0.000000000,0.000000000,0.000000000,0.007263526,0.000000000,0.000000000,0.000000000,0.002114102,0.008732263,0.000000000,0.000000000,0.728884098,0.000000000,0.000000000,0.684637110,1.802337386,1.620380481,0.000000000,1.697468184,1.433487327,1.907206588,1.807273636
1686072690.983970,42.000000000,1686072690.933569431,0.002627244,0.000000000,0.000000000,0.000000000,0.000000000,0.000000000,0.000000000,0.000000000,0.000000000,0.000000000,0.000000000,0.001831207,0.000000000,0.000000000,0.000000000,0.000000000,0.000000000,0.000000000,0.000000000,0.000000000,0.000000000,0.000000000,0.000000000,0.000000000,0.000000000,0.000000000,0.000000000,0.000000000,0.005316468,0.000000000,0.000000000,0.000000000,0.001831207,0.009442468,0.000000000,0.000000000,0.731553347,0.000000000,0.000000000,0.681784204,1.812378326,1.710265067,0.000000000,1.709865032,1.515920345,1.914891621,1.904609790
1686072691.366094,43.000000000,1686072691.334808826,0.002627451,0.000000000,0.000000000,0.000000000,0.000000000,0.000000000,0.000000000,0.000000000,0.000000000,0.000000000,0.000000000,0.001400223,0.000000000,0.000000000,0.000000000,0.000000000,0.000000000,0.000000000,0.000000000,0.000000000,0.000000000,0.000000000,0.000000000,0.000000000,0.000000000,0.000000000,0.000000000,0.000000000,0.005129019,0.000000000,0.000000000,0.000000000,0.001400223,0.008333837,0.000000000,0.000000000,0.747389144,0.000000000,0.000000000,0.664386535,1.816877478,1.778270378,0.000000000,1.714360144,1.595690678,1.919394813,1.960850078
1686072691.748238,44.000000000,1686072691.736064672,0.002906018,0.000000000,0.000000000,0.000000000,0.000000000,0.000000000,0.000000000,0.000000000,0.000000000,0.000000000,0.000000000,0.001443898,0.000000000,0.000000000,0.000000000,0.000000000,0.000000000,0.000000000,0.000000000,0.000000000,0.000000000,0.000000000,0.000000000,0.000000000,0.000000000,0.000000000,0.000000000,0.000000000,0.005697962,0.000000000,0.000000000,0.000000000,0.001443898,0.007769403,0.000000000,0.000000000,0.764928415,0.000000000,0.000000000,0.644115300,1.828463073,1.861508093,0.000000000,1.720648093,1.685219659,1.936278054,2.037796527
1686072692.190798,45.000000000,1686072692.137296915,0.002561217,0.000000000,0.000000000,0.000000000,0.000000000,0.000000000,0.000000000,0.000000000,0.000000000,0.000000000,0.000000000,0.001180339,0.000000000,0.000000000,0.000000000,0.000000000,0.000000000,0.000000000,0.000000000,0.000000000,0.000000000,0.000000000,0.000000000,0.000000000,0.000000000,0.000000000,0.000000000,0.000000000,0.005455652,0.000000000,0.000000000,0.000000000,0.001180339,0.007667845,0.000000000,0.000000000,0.756316172,0.000000000,0.000000000,0.654206273,1.839229862,1.931728931,0.000000000,1.738012919,1.756596471,1.940446805,2.106861392
1686072692.603177,46.000000000,1686072692.538794518,0.002414435,0.000000000,0.000000000,0.000000000,0.000000000,0.000000000,0.000000000,0.000000000,0.000000000,0.000000000,0.000000000,0.000980459,0.000000000,0.000000000,0.000000000,0.000000000,0.000000000,0.000000000,0.000000000,0.000000000,0.000000000,0.000000000,0.000000000,0.000000000,0.000000000,0.000000000,0.000000000,0.000000000,0.006342388,0.000000000,0.000000000,0.000000000,0.000980459,0.008060486,0.000000000,0.000000000,0.726886135,0.000000000,0.000000000,0.686757997,1.848576020,2.005072158,0.000000000,1.750302224,1.825511745,1.946849815,2.184632571
1686072692.985294,47.000000000,1686072692.939896345,0.002379033,0.000000000,0.000000000,0.000000000,0.000000000,0.000000000,0.000000000,0.000000000,0.000000000,0.000000000,0.000000000,0.000492886,0.000000000,0.000000000,0.000000000,0.000000000,0.000000000,0.000000000,0.000000000,0.000000000,0.000000000,0.000000000,0.000000000,0.000000000,0.000000000,0.000000000,0.000000000,0.000000000,0.006110837,0.000000000,0.000000000,0.000000000,0.000492886,0.008012451,0.000000000,0.000000000,0.706896122,0.000000000,0.000000000,0.707317378,1.848490530,2.088332481,0.000000000,1.750939869,1.909307891,1.946041191,2.267357071
1686072693.387645,48.000000000,1686072693.341319084,0.002594674,0.000000000,0.000000000,0.000000000,0.000000000,0.000000000,0.000000000,0.000000000,0.000000000,0.000000000,0.000000000,0.000891871,0.000000000,0.000000000,0.000000000,0.000000000,0.000000000,0.000000000,0.000000000,0.000000000,0.000000000,0.000000000,0.000000000,0.000000000,0.000000000,0.000000000,0.000000000,0.000000000,0.006775702,0.000000000,0.000000000,0.000000000,0.000891871,0.008646585,0.000000000,0.000000000,0.715800217,0.000000000,0.000000000,0.698305127,1.847146076,2.162225678,0.000000000,1.745270186,1.976251650,1.949021966,2.348199706
1686072693.800031,49.000000000,1686072693.742385626,0.002631851,0.000000000,0.000000000,0.000000000,0.000000000,0.000000000,0.000000000,0.000000000,0.000000000,0.000000000,0.000000000,0.001024939,0.000000000,0.000000000,0.000000000,0.000000000,0.000000000,0.000000000,0.000000000,0.000000000,0.000000000,0.000000000,0.000000000,0.000000000,0.000000000,0.000000000,0.000000000,0.000000000,0.007555817,0.000000000,0.000000000,0.000000000,0.001024939,0.009582535,0.000000000,0.000000000,0.749506793,0.000000000,0.000000000,0.661996652,1.851065387,2.229624355,0.000000000,1.748462243,2.033843511,1.953668531,2.425405199
1686072694.172177,50.000000000,1686072694.143616438,0.002257862,0.000000000,0.000000000,0.000000000,0.000000000,0.000000000,0.000000000,0.000000000,0.000000000,0.000000000,0.000000000,0.000692366,0.000000000,0.000000000,0.000000000,0.000000000,0.000000000,0.000000000,0.000000000,0.000000000,0.000000000,0.000000000,0.000000000,0.000000000,0.000000000,0.000000000,0.000000000,0.000000000,0.006636086,0.000000000,0.000000000,0.000000000,0.000692366,0.009545411,0.000000000,0.000000000,0.778349468,0.000000000,0.000000000,0.627831272,1.865144884,2.291668022,0.000000000,1.770110958,2.096266781,1.960178810,2.487069262
1686072694.745508,51.000000000,1686072694.746030569,0.002712047,0.000000000,0.000000000,0.000000000,0.000000000,0.000000000,0.000000000,0.000000000,0.000000000,0.000000000,0.000000000,0.000918628,0.000000000,0.000000000,0.000000000,0.000000000,0.000000000,0.000000000,0.000000000,0.000000000,0.000000000,0.000000000,0.000000000,0.000000000,0.000000000,0.000000000,0.000000000,0.000000000,0.007009157,0.000000000,0.000000000,0.000000000,0.000918628,0.009694975,0.000000000,0.000000000,0.798396579,0.000000000,0.000000000,0.602131965,1.886123501,2.372982014,0.000000000,1.781968864,2.176055889,1.990278139,2.569908140
1686072695.167893,52.000000000,1686072695.147230625,0.002785711,0.000000000,0.000000000,0.000000000,0.000000000,0.000000000,0.000000000,0.000000000,0.000000000,0.000000000,0.000000000,0.001029243,0.000000000,0.000000000,0.000000000,0.000000000,0.000000000,0.000000000,0.000000000,0.000000000,0.000000000,0.000000000,0.000000000,0.000000000,0.000000000,0.000000000,0.000000000,0.000000000,0.006920692,0.000000000,0.000000000,0.000000000,0.001029243,0.009148420,0.000000000,0.000000000,0.809884835,0.000000000,0.000000000,0.586588913,1.911478181,2.441430470,0.000000000,1.805918505,2.250135719,2.017037858,2.632725221
1686072695.550007,53.000000000,1686072695.548578262,0.002170260,0.000000000,0.000000000,0.000000000,0.000000000,0.000000000,0.000000000,0.000000000,0.000000000,0.000000000,0.000000000,0.000720872,0.000000000,0.000000000,0.000000000,0.000000000,0.000000000,0.000000000,0.000000000,0.000000000,0.000000000,0.000000000,0.000000000,0.000000000,0.000000000,0.000000000,0.000000000,0.000000000,0.006424752,0.000000000,0.000000000,0.000000000,0.000720872,0.008969432,0.000000000,0.000000000,0.815185460,0.000000000,0.000000000,0.579200023,1.935213130,2.512411264,0.000000000,1.842041021,2.322997098,2.028385240,2.701825430
1686072695.962305,54.000000000,1686072695.949813128,0.002105186,0.000000000,0.000000000,0.000000000,0.000000000,0.000000000,0.000000000,0.000000000,0.000000000,0.000000000,0.000000000,0.000552851,0.000000000,0.000000000,0.000000000,0.000000000,0.000000000,0.000000000,0.000000000,0.000000000,0.000000000,0.000000000,0.000000000,0.000000000,0.000000000,0.000000000,0.000000000,0.000000000,0.005560886,0.000000000,0.000000000,0.000000000,0.000552851,0.008692410,0.000000000,0.000000000,0.823718073,0.000000000,0.000000000,0.566999591,1.965843360,2.593364939,0.000000000,1.874078758,2.406898746,2.057607963,2.779831131
1686072696.364652,55.000000000,1686072696.351077080,0.002261299,0.000000000,0.000000000,0.000000000,0.000000000,0.000000000,0.000000000,0.000000000,0.000000000,0.000000000,0.000000000,0.000798399,0.000000000,0.000000000,0.000000000,0.000000000,0.000000000,0.000000000,0.000000000,0.000000000,0.000000000,0.000000000,0.000000000,0.000000000,0.000000000,0.000000000,0.000000000,0.000000000,0.005419141,0.000000000,0.000000000,0.000000000,0.000798399,0.008319996,0.000000000,0.000000000,0.823929467,0.000000000,0.000000000,0.566692362,1.997716064,2.670104580,0.000000000,1.902609835,2.487676560,2.092822294,2.852532600
1686072696.746797,56.000000000,1686072696.752344608,0.002306084,0.000000000,0.000000000,0.000000000,0.000000000,0.000000000,0.000000000,0.000000000,0.000000000,0.000000000,0.000000000,0.000717146,0.000000000,0.000000000,0.000000000,0.000000000,0.000000000,0.000000000,0.000000000,0.000000000,0.000000000,0.000000000,0.000000000,0.000000000,0.000000000,0.000000000,0.000000000,0.000000000,0.005161529,0.000000000,0.000000000,0.000000000,0.000717146,0.008231063,0.000000000,0.000000000,0.805658170,0.000000000,0.000000000,0.592380717,2.024982717,2.749524934,0.000000000,1.928939311,2.568074520,2.121026124,2.930975348
1686072697.209417,57.000000000,1686072697.153566360,0.001939470,0.000000000,0.000000000,0.000000000,0.000000000,0.000000000,0.000000000,0.000000000,0.000000000,0.000000000,0.000000000,0.000780201,0.000000000,0.000000000,0.000000000,0.000000000,0.000000000,0.000000000,0.000000000,0.000000000,0.000000000,0.000000000,0.000000000,0.000000000,0.000000000,0.000000000,0.000000000,0.000000000,0.005010393,0.000000000,0.000000000,0.000000000,0.000780201,0.007153626,0.000000000,0.000000000,0.779702998,0.000000000,0.000000000,0.626149531,2.047169231,2.817688169,0.000000000,1.959090409,2.648529946,2.135248053,2.986846391
1686072697.611747,58.000000000,1686072697.554783106,0.001793625,0.000000000,0.000000000,0.000000000,0.000000000,0.000000000,0.000000000,0.000000000,0.000000000,0.000000000,0.000000000,0.000956458,0.000000000,0.000000000,0.000000000,0.000000000,0.000000000,0.000000000,0.000000000,0.000000000,0.000000000,0.000000000,0.000000000,0.000000000,0.000000000,0.000000000,0.000000000,0.000000000,0.005228603,0.000000000,0.000000000,0.000000000,0.000956458,0.007459130,0.000000000,0.000000000,0.754247554,0.000000000,0.000000000,0.656590152,2.065692666,2.894072735,0.000000000,1.980990245,2.721340225,2.150395087,3.066805245
1686072698.034116,59.000000000,1686072697.957278490,0.001788741,0.000000000,0.000000000,0.000000000,0.000000000,0.000000000,0.000000000,0.000000000,0.000000000,0.000000000,0.000000000,0.000931380,0.000000000,0.000000000,0.000000000,0.000000000,0.000000000,0.000000000,0.000000000,0.000000000,0.000000000,0.000000000,0.000000000,0.000000000,0.000000000,0.000000000,0.000000000,0.000000000,0.005517410,0.000000000,0.000000000,0.000000000,0.000931380,0.007290350,0.000000000,0.000000000,0.733558719,0.000000000,0.000000000,0.679626078,2.074356141,2.973276412,0.000000000,1.989769117,2.802509316,2.158943166,3.144043508
1686072698.406234,60.000000000,1686072698.358560324,0.001760374,0.000000000,0.000000000,0.000000000,0.000000000,0.000000000,0.000000000,0.000000000,0.000000000,0.000000000,0.000000000,0.000848090,0.000000000,0.000000000,0.000000000,0.000000000,0.000000000,0.000000000,0.000000000,0.000000000,0.000000000,0.000000000,0.000000000,0.000000000,0.000000000,0.000000000,0.000000000,0.000000000,0.004918201,0.000000000,0.000000000,0.000000000,0.000848090,0.007201287,0.000000000,0.000000000,0.710053720,0.000000000,0.000000000,0.704147509,2.077774891,3.051251806,0.000000000,1.993861269,2.881531017,2.161688513,3.220972596
1686072698.778239,61.000000000,1686072698.759750366,0.001792818,0.000000000,0.000000000,0.000000000,0.000000000,0.000000000,0.000000000,0.000000000,0.000000000,0.000000000,0.000000000,0.000803977,0.000000000,0.000000000,0.000000000,0.000000000,0.000000000,0.000000000,0.000000000,0.000000000,0.000000000,0.000000000,0.000000000,0.000000000,0.000000000,0.000000000,0.000000000,0.000000000,0.004812997,0.000000000,0.000000000,0.000000000,0.000803977,0.007370257,0.000000000,0.000000000,0.672923020,0.000000000,0.000000000,0.739712518,2.078453190,3.124112306,0.000000000,1.993769827,2.952411903,2.163136553,3.295812709
1686072699.190535,62.000000000,1686072699.161027670,0.001763256,0.000000000,0.000000000,0.000000000,0.000000000,0.000000000,0.000000000,0.000000000,0.000000000,0.000000000,0.000000000,0.000687545,0.000000000,0.000000000,0.000000000,0.000000000,0.000000000,0.000000000,0.000000000,0.000000000,0.000000000,0.000000000,0.000000000,0.000000000,0.000000000,0.000000000,0.000000000,0.000000000,0.004286866,0.000000000,0.000000000,0.000000000,0.000687545,0.007514027,0.000000000,0.000000000,0.620019911,0.000000000,0.000000000,0.784586075,2.066676942,3.191437683,0.000000000,1.982694660,3.018070708,2.150659224,3.364804658
1686072699.592846,63.000000000,1686072699.562311411,0.001957519,0.000000000,0.000000000,0.000000000,0.000000000,0.000000000,0.000000000,0.000000000,0.000000000,0.000000000,0.000000000,0.000043820,0.000000000,0.000000000,0.000000000,0.000000000,0.000000000,0.000000000,0.000000000,0.000000000,0.000000000,0.000000000,0.000000000,0.000000000,0.000000000,0.000000000,0.000000000,0.000000000,0.004484689,0.000000000,0.000000000,0.000000000,0.000043820,0.007336550,0.000000000,0.000000000,0.562602429,0.000000000,0.000000000,0.826727589,2.047226645,3.260037495,0.000000000,1.958738921,3.088730169,2.135714370,3.431344820
1686072699.995157,64.000000000,1686072699.963681459,0.002158398,0.000000000,0.000000000,0.000000000,0.000000000,0.000000000,0.000000000,0.000000000,0.000000000,0.000000000,0.000000000,-0.000358261,0.000000000,0.000000000,0.000000000,0.000000000,0.000000000,0.000000000,0.000000000,0.000000000,0.000000000,0.000000000,0.000000000,0.000000000,0.000000000,0.000000000,0.000000000,0.000000000,0.004979819,0.000000000,0.000000000,0.000000000,-0.000358261,0.007602652,0.000000000,0.000000000,0.505628439,0.000000000,0.000000000,0.862751344,2.019432042,3.321743863,0.000000000,1.926514925,3.147357492,2.112349160,3.496130234
1686072700.387384,65.000000000,1686072700.364857674,0.002769917,0.000000000,0.000000000,0.000000000,0.000000000,0.000000000,0.000000000,0.000000000,0.000000000,0.000000000,0.000000000,-0.000915801,0.000000000,0.000000000,0.000000000,0.000000000,0.000000000,0.000000000,0.000000000,0.000000000,0.000000000,0.000000000,0.000000000,0.000000000,0.000000000,0.000000000,0.000000000,0.000000000,0.005063553,0.000000000,0.000000000,0.000000000,-0.000915801,0.007271388,0.000000000,0.000000000,0.447017251,0.000000000,0.000000000,0.894525336,1.978954900,3.379188802,0.000000000,1.873694906,3.208643932,2.084214893,3.549733672
1686072700.779570,66.000000000,1686072700.766392946,0.003162574,0.000000000,0.000000000,0.000000000,0.000000000,0.000000000,0.000000000,0.000000000,0.000000000,0.000000000,0.000000000,-0.001200251,0.000000000,0.000000000,0.000000000,0.000000000,0.000000000,0.000000000,0.000000000,0.000000000,0.000000000,0.000000000,0.000000000,0.000000000,0.000000000,0.000000000,0.000000000,0.000000000,0.004724529,0.000000000,0.000000000,0.000000000,-0.001200251,0.006800360,0.000000000,0.000000000,0.405261414,0.000000000,0.000000000,0.914200846,1.928922563,3.440797649,0.000000000,1.816449020,3.275869061,2.041396106,3.605726238
1686072701.162120,67.000000000,1686072701.167485714,0.003665812,0.000000000,0.000000000,0.000000000,0.000000000,0.000000000,0.000000000,0.000000000,0.000000000,0.000000000,0.000000000,-0.001311068,0.000000000,0.000000000,0.000000000,0.000000000,0.000000000,0.000000000,0.000000000,0.000000000,0.000000000,0.000000000,0.000000000,0.000000000,0.000000000,0.000000000,0.000000000,0.000000000,0.004811562,0.000000000,0.000000000,0.000000000,-0.001311068,0.006312726,0.000000000,0.000000000,0.376261131,0.000000000,0.000000000,0.926513660,1.872604659,3.496746192,0.000000000,1.751512760,3.337840863,1.993696558,3.655651520
1686072701.564402,68.000000000,1686072701.568928480,0.003805168,0.000000000,0.000000000,0.000000000,0.000000000,0.000000000,0.000000000,0.000000000,0.000000000,0.000000000,0.000000000,-0.000938357,0.000000000,0.000000000,0.000000000,0.000000000,0.000000000,0.000000000,0.000000000,0.000000000,0.000000000,0.000000000,0.000000000,0.000000000,0.000000000,0.000000000,0.000000000,0.000000000,0.004669627,0.000000000,0.000000000,0.000000000,-0.000938357,0.005404294,0.000000000,0.000000000,0.363356105,0.000000000,0.000000000,0.931650332,1.815190189,3.556740503,0.000000000,1.691818109,3.409712701,1.938562270,3.703768306
1686072701.966635,69.000000000,1686072701.970084906,0.003702974,0.000000000,0.000000000,0.000000000,0.000000000,0.000000000,0.000000000,0.000000000,0.000000000,0.000000000,0.000000000,-0.000438610,0.000000000,0.000000000,0.000000000,0.000000000,0.000000000,0.000000000,0.000000000,0.000000000,0.000000000,0.000000000,0.000000000,0.000000000,0.000000000,0.000000000,0.000000000,0.000000000,0.004396349,0.000000000,0.000000000,0.000000000,-0.000438610,0.005204316,0.000000000,0.000000000,0.353214800,0.000000000,0.000000000,0.935542252,1.756151813,3.611658219,0.000000000,1.634447675,3.467376322,1.877855950,3.755940115
1686072702.419230,70.000000000,1686072702.372545004,0.003785997,0.000000000,0.000000000,0.000000000,0.000000000,0.000000000,0.000000000,0.000000000,0.000000000,0.000000000,0.000000000,-0.001126439,0.000000000,0.000000000,0.000000000,0.000000000,0.000000000,0.000000000,0.000000000,0.000000000,0.000000000,0.000000000,0.000000000,0.000000000,0.000000000,0.000000000,0.000000000,0.000000000,0.004648972,0.000000000,0.000000000,0.000000000,-0.001126439,0.005471702,0.000000000,0.000000000,0.343075762,0.000000000,0.000000000,0.939307735,1.697236277,3.659977492,0.000000000,1.574175361,3.512035591,1.820297193,3.807919393
1686072702.781273,71.000000000,1686072702.773839951,0.004418641,0.000000000,0.000000000,0.000000000,0.000000000,0.000000000,0.000000000,0.000000000,0.000000000,0.000000000,0.000000000,-0.001233148,0.000000000,0.000000000,0.000000000,0.000000000,0.000000000,0.000000000,0.000000000,0.000000000,0.000000000,0.000000000,0.000000000,0.000000000,0.000000000,0.000000000,0.000000000,0.000000000,0.005666084,0.000000000,0.000000000,0.000000000,-0.001233148,0.006135077,0.000000000,0.000000000,0.360537714,0.000000000,0.000000000,0.932744636,1.631931520,3.702584754,0.000000000,1.498985799,3.545931287,1.764877241,3.859238221
1686072703.193652,72.000000000,1686072703.175052643,0.004869876,0.000000000,0.000000000,0.000000000,0.000000000,0.000000000,0.000000000,0.000000000,0.000000000,0.000000000,0.000000000,-0.001098997,0.000000000,0.000000000,0.000000000,0.000000000,0.000000000,0.000000000,0.000000000,0.000000000,0.000000000,0.000000000,0.000000000,0.000000000,0.000000000,0.000000000,0.000000000,0.000000000,0.004429347,0.000000000,0.000000000,0.000000000,-0.001098997,0.005626192,0.000000000,0.000000000,0.355644960,0.000000000,0.000000000,0.934621133,1.581809028,3.754248071,0.000000000,1.442240032,3.604232177,1.721378024,3.904263965
1686072703.605946,73.000000000,1686072703.575019836,0.004184362,0.000000000,0.000000000,0.000000000,0.000000000,0.000000000,0.000000000,0.000000000,0.000000000,0.000000000,0.000000000,-0.001296548,0.000000000,0.000000000,0.000000000,0.000000000,0.000000000,0.000000000,0.000000000,0.000000000,0.000000000,0.000000000,0.000000000,0.000000000,0.000000000,0.000000000,0.000000000,0.000000000,0.003664011,0.000000000,0.000000000,0.000000000,-0.001296548,0.005765393,0.000000000,0.000000000,0.343016321,0.000000000,0.000000000,0.939329444,1.537311900,3.809591480,0.000000000,1.407938612,3.657731105,1.666685189,3.961451855
1686072704.008373,74.000000000,1686072703.977506876,0.003923355,0.000000000,0.000000000,0.000000000,0.000000000,0.000000000,0.000000000,0.000000000,0.000000000,0.000000000,0.000000000,-0.001498134,0.000000000,0.000000000,0.000000000,0.000000000,0.000000000,0.000000000,0.000000000,0.000000000,0.000000000,0.000000000,0.000000000,0.000000000,0.000000000,0.000000000,0.000000000,0.000000000,0.004055293,0.000000000,0.000000000,0.000000000,-0.001498134,0.006371032,0.000000000,0.000000000,0.304453299,0.000000000,0.000000000,0.952527264,1.481391028,3.861429451,0.000000000,1.356117643,3.701791963,1.606664414,4.021066938
1686072704.390601,75.000000000,1686072704.378750324,0.004209328,0.000000000,0.000000000,0.000000000,0.000000000,0.000000000,0.000000000,0.000000000,0.000000000,0.000000000,0.000000000,-0.001682969,0.000000000,0.000000000,0.000000000,0.000000000,0.000000000,0.000000000,0.000000000,0.000000000,0.000000000,0.000000000,0.000000000,0.000000000,0.000000000,0.000000000,0.000000000,0.000000000,0.003826205,0.000000000,0.000000000,0.000000000,-0.001682969,0.006146575,0.000000000,0.000000000,0.265911429,0.000000000,0.000000000,0.963997465,1.423305736,3.901888335,0.000000000,1.293547066,3.745088143,1.553064406,4.058688527
1686072704.843239,76.000000000,1686072704.780038118,0.004839916,0.000000000,0.000000000,0.000000000,0.000000000,0.000000000,0.000000000,0.000000000,0.000000000,0.000000000,0.000000000,-0.001846340,0.000000000,0.000000000,0.000000000,0.000000000,0.000000000,0.000000000,0.000000000,0.000000000,0.000000000,0.000000000,0.000000000,0.000000000,0.000000000,0.000000000,0.000000000,0.000000000,0.004620653,0.000000000,0.000000000,0.000000000,-0.001846340,0.006409560,0.000000000,0.000000000,0.205603597,0.000000000,0.000000000,0.978635356,1.352862261,3.939353844,0.000000000,1.213723259,3.779234387,1.492001264,4.099473301
1686072705.225444,77.000000000,1686072705.181244373,0.005902537,0.000000000,0.000000000,0.000000000,0.000000000,0.000000000,0.000000000,0.000000000,0.000000000,0.000000000,0.000000000,-0.001719715,0.000000000,0.000000000,0.000000000,0.000000000,0.000000000,0.000000000,0.000000000,0.000000000,0.000000000,0.000000000,0.000000000,0.000000000,0.000000000,0.000000000,0.000000000,0.000000000,0.004196063,0.000000000,0.000000000,0.000000000,-0.001719715,0.005996394,0.000000000,0.000000000,0.142064509,0.000000000,0.000000000,0.989857402,1.290811844,3.956866650,0.000000000,1.137155901,3.801993874,1.444467788,4.111739427
1686072705.597617,78.000000000,1686072705.582489014,0.006184191,0.000000000,0.000000000,0.000000000,0.000000000,0.000000000,0.000000000,0.000000000,0.000000000,0.000000000,0.000000000,-0.002009926,0.000000000,0.000000000,0.000000000,0.000000000,0.000000000,0.000000000,0.000000000,0.000000000,0.000000000,0.000000000,0.000000000,0.000000000,0.000000000,0.000000000,0.000000000,0.000000000,0.004501806,0.000000000,0.000000000,0.000000000,-0.002009926,0.005832999,0.000000000,0.000000000,0.098975474,0.000000000,0.000000000,0.995089873,1.222255952,3.970508024,0.000000000,1.064976702,3.817759880,1.379535201,4.123256167
1686072706.020028,79.000000000,1686072705.983706474,0.006855712,0.000000000,0.000000000,0.000000000,0.000000000,0.000000000,0.000000000,0.000000000,0.000000000,0.000000000,0.000000000,-0.001479473,0.000000000,0.000000000,0.000000000,0.000000000,0.000000000,0.000000000,0.000000000,0.000000000,0.000000000,0.000000000,0.000000000,0.000000000,0.000000000,0.000000000,0.000000000,0.000000000,0.004471881,0.000000000,0.000000000,0.000000000,-0.001479473,0.005041707,0.000000000,0.000000000,0.065601354,0.000000000,0.000000000,0.997845911,1.145057025,3.980997587,0.000000000,0.979458566,3.838987633,1.310655483,4.123007540
1686072706.442438,80.000000000,1686072706.384965420,0.007554142,0.000000000,0.000000000,0.000000000,0.000000000,0.000000000,0.000000000,0.000000000,0.000000000,0.000000000,0.000000000,-0.001649886,0.000000000,0.000000000,0.000000000,0.000000000,0.000000000,0.000000000,0.000000000,0.000000000,0.000000000,0.000000000,0.000000000,0.000000000,0.000000000,0.000000000,0.000000000,0.000000000,0.005166709,0.000000000,0.000000000,0.000000000,-0.001649886,0.004698463,0.000000000,0.000000000,0.020838088,0.000000000,0.000000000,0.999782863,1.083030241,3.981078917,0.000000000,0.909201111,3.843988243,1.256859371,4.118169592
1686072706.834718,81.000000000,1686072706.786214113,0.007530518,0.000000000,0.000000000,0.000000000,0.000000000,0.000000000,0.000000000,0.000000000,0.000000000,0.000000000,0.000000000,-0.001001914,0.000000000,0.000000000,0.000000000,0.000000000,0.000000000,0.000000000,0.000000000,0.000000000,0.000000000,0.000000000,0.000000000,0.000000000,0.000000000,0.000000000,0.000000000,0.000000000,0.005330492,0.000000000,0.000000000,0.000000000,-0.001001914,0.003871143,0.000000000,0.000000000,0.036651650,0.000000000,0.000000000,-0.999328103,1.017136933,3.976960879,0.000000000,0.843579817,3.852523861,1.190694050,4.101397897
1686072707.216826,82.000000000,1686072707.187437773,0.008251219,0.000000000,0.000000000,0.000000000,0.000000000,0.000000000,0.000000000,0.000000000,0.000000000,0.000000000,0.000000000,-0.000779186,0.000000000,0.000000000,0.000000000,0.000000000,0.000000000,0.000000000,0.000000000,0.000000000,0.000000000,0.000000000,0.000000000,0.000000000,0.000000000,0.000000000,0.000000000,0.000000000,0.005025182,0.000000000,0.000000000,0.000000000,-0.000779186,0.003869303,0.000000000,0.000000000,0.106074050,0.000000000,0.000000000,-0.994358233,0.954912403,3.965225757,0.000000000,0.773239964,3.840818309,1.136584843,4.089633206
1686072707.649240,83.000000000,1686072707.588700771,0.007488377,0.000000000,0.000000000,0.000000000,0.000000000,0.000000000,0.000000000,0.000000000,0.000000000,0.000000000,0.000000000,-0.000078903,0.000000000,0.000000000,0.000000000,0.000000000,0.000000000,0.000000000,0.000000000,0.000000000,0.000000000,0.000000000,0.000000000,0.000000000,0.000000000,0.000000000,0.000000000,0.000000000,0.005389413,0.000000000,0.000000000,0.000000000,-0.000078903,0.003834378,0.000000000,0.000000000,0.177697225,0.000000000,0.000000000,-0.984085208,0.895142465,3.947204599,0.000000000,0.722071651,3.823359892,1.068213279,4.071049306
1686072708.041408,84.000000000,1686072707.989932537,0.007359569,0.000000000,0.000000000,0.000000000,0.000000000,0.000000000,0.000000000,0.000000000,0.000000000,0.000000000,0.000000000,0.000508668,0.000000000,0.000000000,0.000000000,0.000000000,0.000000000,0.000000000,0.000000000,0.000000000,0.000000000,0.000000000,0.000000000,0.000000000,0.000000000,0.000000000,0.000000000,0.000000000,0.005224117,0.000000000,0.000000000,0.000000000,0.000508668,0.003503740,0.000000000,0.000000000,0.255044385,0.000000000,0.000000000,-0.966929347,0.837076377,3.915251591,0.000000000,0.665500521,3.796866788,1.008652232,4.033636394
1686072708.433580,85.000000000,1686072708.391445875,0.007269155,0.000000000,0.000000000,0.000000000,0.000000000,0.000000000,0.000000000,0.000000000,0.000000000,0.000000000,0.000000000,0.000935995,0.000000000,0.000000000,0.000000000,0.000000000,0.000000000,0.000000000,0.000000000,0.000000000,0.000000000,0.000000000,0.000000000,0.000000000,0.000000000,0.000000000,0.000000000,0.000000000,0.005724792,0.000000000,0.000000000,0.000000000,0.000935995,0.003555919,0.000000000,0.000000000,0.323561167,0.000000000,0.000000000,-0.946207256,0.785979333,3.877248755,0.000000000,0.615460656,3.757985699,0.956498010,3.996511811
1686072708.805773,86.000000000,1686072708.792466402,0.007030703,0.000000000,0.000000000,0.000000000,0.000000000,0.000000000,0.000000000,0.000000000,0.000000000,0.000000000,0.000000000,0.001843766,0.000000000,0.000000000,0.000000000,0.000000000,0.000000000,0.000000000,0.000000000,0.000000000,0.000000000,0.000000000,0.000000000,0.000000000,0.000000000,0.000000000,0.000000000,0.000000000,0.005646782,0.000000000,0.000000000,0.000000000,0.001843766,0.004279739,0.000000000,0.000000000,0.379264115,0.000000000,0.000000000,-0.925288458,0.732832834,3.831119206,0.000000000,0.565134253,3.700279774,0.900531414,3.961958638
1686072709.248296,87.000000000,1686072709.193667889,0.006252003,0.000000000,0.000000000,0.000000000,0.000000000,0.000000000,0.000000000,0.000000000,0.000000000,0.000000000,0.000000000,0.001467774,0.000000000,0.000000000,0.000000000,0.000000000,0.000000000,0.000000000,0.000000000,0.000000000,0.000000000,0.000000000,0.000000000,0.000000000,0.000000000,0.000000000,0.000000000,0.000000000,0.005122063,0.000000000,0.000000000,0.000000000,0.001467774,0.004134045,0.000000000,0.000000000,0.419526171,0.000000000,0.000000000,-0.907743241,0.681145251,3.782812761,0.000000000,0.523006031,3.654219679,0.839284471,3.911405843
1686072709.590338,88.000000000,1686072709.594917059,0.005686918,0.000000000,0.000000000,0.000000000,0.000000000,0.000000000,0.000000000,0.000000000,0.000000000,0.000000000,0.000000000,0.001496942,0.000000000,0.000000000,0.000000000,0.000000000,0.000000000,0.000000000,0.000000000,0.000000000,0.000000000,0.000000000,0.000000000,0.000000000,0.000000000,0.000000000,0.000000000,0.000000000,0.004360855,0.000000000,0.000000000,0.000000000,0.001496942,0.003683465,0.000000000,0.000000000,0.435802474,0.000000000,0.000000000,-0.900042334,0.634174707,3.724130279,0.000000000,0.483351399,3.602747169,0.784998015,3.845513388
1686072710.032833,89.000000000,1686072709.996137619,0.004912028,0.000000000,0.000000000,0.000000000,0.000000000,0.000000000,0.000000000,0.000000000,0.000000000,0.000000000,0.000000000,0.001196801,0.000000000,0.000000000,0.000000000,0.000000000,0.000000000,0.000000000,0.000000000,0.000000000,0.000000000,0.000000000,0.000000000,0.000000000,0.000000000,0.000000000,0.000000000,0.000000000,0.003629003,0.000000000,0.000000000,0.000000000,0.001196801,0.003260161,0.000000000,0.000000000,0.445273472,0.000000000,0.000000000,-0.895394625,0.581305531,3.660601162,0.000000000,0.441133815,3.546405516,0.721477247,3.774796809
1686072710.425028,90.000000000,1686072710.397494793,0.004419505,0.000000000,0.000000000,0.000000000,0.000000000,0.000000000,0.000000000,0.000000000,0.000000000,0.000000000,0.000000000,0.001498175,0.000000000,0.000000000,0.000000000,0.000000000,0.000000000,0.000000000,0.000000000,0.000000000,0.000000000,0.000000000,0.000000000,0.000000000,0.000000000,0.000000000,0.000000000,0.000000000,0.003486305,0.000000000,0.000000000,0.000000000,0.001498175,0.003349328,0.000000000,0.000000000,0.462406278,0.000000000,0.000000000,-0.886668165,0.529089279,3.595938816,0.000000000,0.396130557,3.480192066,0.662048001,3.711685566
1686072710.847584,91.000000000,1686072710.798622131,0.004103210,0.000000000,0.000000000,0.000000000,0.000000000,0.000000000,0.000000000,0.000000000,0.000000000,0.000000000,0.000000000,0.001473636,0.000000000,0.000000000,0.000000000,0.000000000,0.000000000,0.000000000,0.000000000,0.000000000,0.000000000,0.000000000,0.000000000,0.000000000,0.000000000,0.000000000,0.000000000,0.000000000,0.003391742,0.000000000,0.000000000,0.000000000,0.001473636,0.003304111,0.000000000,0.000000000,0.458470749,0.000000000,0.000000000,-0.888709498,0.480625277,3.529019637,0.000000000,0.352512671,3.414056846,0.608737884,3.643982428
1686072711.219673,92.000000000,1686072711.199880838,0.003711838,0.000000000,0.000000000,0.000000000,0.000000000,0.000000000,0.000000000,0.000000000,0.000000000,0.000000000,0.000000000,0.001377081,0.000000000,0.000000000,0.000000000,0.000000000,0.000000000,0.000000000,0.000000000,0.000000000,0.000000000,0.000000000,0.000000000,0.000000000,0.000000000,0.000000000,0.000000000,0.000000000,0.003652042,0.000000000,0.000000000,0.000000000,0.001377081,0.003236712,0.000000000,0.000000000,0.441045089,0.000000000,0.000000000,-0.897484946,0.432515507,3.465608483,0.000000000,0.310665800,3.351824258,0.554365213,3.579392708
1686072711.631997,93.000000000,1686072711.601116180,0.003892441,0.000000000,0.000000000,0.000000000,0.000000000,0.000000000,0.000000000,0.000000000,0.000000000,0.000000000,0.000000000,0.001422258,0.000000000,0.000000000,0.000000000,0.000000000,0.000000000,0.000000000,0.000000000,0.000000000,0.000000000,0.000000000,0.000000000,0.000000000,0.000000000,0.000000000,0.000000000,0.000000000,0.003913973,0.000000000,0.000000000,0.000000000,0.001422258,0.003010824,0.000000000,0.000000000,0.435310792,0.000000000,0.000000000,-0.900280242,0.382363516,3.407914879,0.000000000,0.257584648,3.298172934,0.507142384,3.517656823
1686072712.225391,94.000000000,1686072712.203471661,0.003646942,0.000000000,0.000000000,0.000000000,0.000000000,0.000000000,0.000000000,0.000000000,0.000000000,0.000000000,0.000000000,0.002193071,0.000000000,0.000000000,0.000000000,0.000000000,0.000000000,0.000000000,0.000000000,0.000000000,0.000000000,0.000000000,0.000000000,0.000000000,0.000000000,0.000000000,0.000000000,0.000000000,0.005415571,0.000000000,0.000000000,0.000000000,0.002193071,0.004028431,0.000000000,0.000000000,0.431446541,0.000000000,0.000000000,-0.902138505,0.310792534,3.312064698,0.000000000,0.190012696,3.185124850,0.431572371,3.439004547
